osm_id|name|category|type|lon|lat|alt_name|int_name|street|housenumber|postcode|city|country|phone|fax|email|website|opening_hours|description|image|last_update|operator|wikipedia|wkt
N1029715504|Pool Bar|FOOD|BAR|19.8296369|39.6517114||||||||||||||||||POINT(19.8296369 39.6517114)
N1029715509|Convenience Strore Marina Gouvia|SHOP|CONVENIENCE|19.8542664|39.6473859||||||||||||||||||POINT(19.8542664 39.6473859)
N1029715541|Pool Bar|FOOD|BAR|19.8551864|39.6476937||||||||||||||||||POINT(19.8551864 39.6476937)
N1085861173|Athena Supermarket|SHOP|CONVENIENCE|19.736595|39.6712563||||||||||||||||||POINT(19.736595 39.6712563)
N1088014445|Sunrise Bar|FOOD|BAR|20.0964796|39.4074531||||||||||||||||||POINT(20.0964796 39.4074531)
N1090899147|Ψίκος|SHOP|COPYSHOP|20.0789557|39.420952||||||||||||||||||POINT(20.0789557 39.420952)
N1090899224|Φιλαρμονική Λευκίμμης|TOURIST|THEATRE|20.0795942|39.4209911|||||||||||http://www.lefkimi.gov.gr/Default.aspx?tabid=314|||||||POINT(20.0795942 39.4209911)
N1090899327|Περίπτερο Κωνσταντίνα Βερονίκη|SHOP|CONVENIENCE|20.0790483|39.4211864||||||||||||||||||POINT(20.0790483 39.4211864)
N1094096682|Λευκίμμη|POI|VILLAGE|20.0628721|39.4227759||Lefkimmi|||49080||||||||||||el.wikipedia.org/wiki/Λευκίμμη|POINT(20.0628721 39.4227759)
N1105812739|Eucalyptus Taverna|FOOD|RESTAURANT|19.9483499|39.7673028||||||||||||||||||POINT(19.9483499 39.7673028)
N1118693142|Mayor Pelekas Monastery Resort|ACCOMMODATION|HOTEL|19.8214752|39.583847||||||||||||||||||POINT(19.8214752 39.583847)
N1185364874|Γενικό Νομαρχιακό Νοσοκομείο Κέρκυρας|HEALTH|HOSPITAL|19.8507243|39.6431556||||||||||||||||||POINT(19.8507243 39.6431556)
N1185364878|Αγία Τριάδα|POW|CHRISTIAN|19.8510964|39.6456843||||||||||||||||||POINT(19.8510964 39.6456843)
N1185364879|Κοντόκαλι|POI|VILLAGE|19.8531279|39.6446509|||||49100|||||||||||||POINT(19.8531279 39.6446509)
N1185364881|Δημοτικό Σχολείο Κοντοκαλίου|EDUCATION|SCHOOL|19.8519933|39.6445587||Municipal School of Kontokali||||||||||||||||POINT(19.8519933 39.6445587)
N1260636867|Nissaki|TRANSPORT|BUSSTOP|19.9005098|39.7261092||||||||||||||||||POINT(19.9005098 39.7261092)
N1261824478|Ψησταριά|FOOD|RESTAURANT|19.8443654|39.7079704||||||||||||||||||POINT(19.8443654 39.7079704)
N1269159334|Aristea|ACCOMMODATION|HOTEL|19.8292847|39.690442||||||||||||||||||POINT(19.8292847 39.690442)
N1269193728|Το Πικάντικο|FOOD|CAFE|20.0727873|39.4233148||||||||||||||||||POINT(20.0727873 39.4233148)
N1269193731|Έσπερος Cafe|FOOD|CAFE|20.0712453|39.4107631||||||||||||||||||POINT(20.0712453 39.4107631)
N1269193741|Μικρό Cafe Espresso Bar|FOOD|CAFE|20.0624218|39.4234046||||||||||||||||||POINT(20.0624218 39.4234046)
N1269193744|Κύτταρο|FOOD|CAFE|20.0717863|39.4113908||||||||||||||||||POINT(20.0717863 39.4113908)
N1269247780|Diellas|SHOP|SUPERMARKET|20.0629415|39.4120387|||||||||||http://www.diellas.eu|||||||POINT(20.0629415 39.4120387)
N1269586724|Λιαπάδες|POI|VILLAGE|19.7403711|39.6691422||Liapades|||49083|||||||||||||POINT(19.7403711 39.6691422)
N1269623709|Κάτω Κορακιάνα|POI|VILLAGE|19.8291585|39.6895761|||||49083|||||||||||||POINT(19.8291585 39.6895761)
N1281649593|Κυρά Χρυσικού|POI|VILLAGE|19.8417227|39.6354734|||||49100|||||||||||||POINT(19.8417227 39.6354734)
N1282085210|Grammes|TRANSPORT|BUSSTOP|19.9184313|39.6215979||||||||||||||||Corfu City Bus S.A.||POINT(19.9184313 39.6215979)
N1282085223|Κεντρικό Ταχυδρομείο|AMENITY|POSTOFFICE|19.9190158|39.6200838|||||491 00|||||||||||||POINT(19.9190158 39.6200838)
N1306075133|Taverna Leonidas|FOOD|RESTAURANT|20.001782|39.4540332||||||Petriti|||||https://tavernapetriti.wordpress.com/|||||||POINT(20.001782 39.4540332)
N1313301549|Marias Snack Shack|FOOD|RESTAURANT|19.6746827|39.7203569||||||||||||||||||POINT(19.6746827 39.7203569)
N1317117640|Blue Graveyard ?|TOURIST|ATTRACTION|19.9252978|39.645682||||||||||||||||||POINT(19.9252978 39.645682)
N1317783440|Pub 007|FOOD|PUB|19.7018138|39.7082734||||||||||||||||||POINT(19.7018138 39.7082734)
N1321634206|Panagia ton Drómon|TOURIST|MEMORIAL|19.8388384|39.73931||||||||||||||||||POINT(19.8388384 39.73931)
N1330237335|grotto blue eye|TOURIST|ATTRACTION|19.7141487|39.6715198|||||||||||||Sea cave, accessible by local tour boats.|||||POINT(19.7141487 39.6715198)
N1335979596|Ποταμός|POI|VILLAGE|19.8784489|39.623429|||||49100|||||||||||||POINT(19.8784489 39.623429)
N1339597373|Bistro Boileau|FOOD|RESTAURANT|19.8503376|39.6460496||||||||||||||||||POINT(19.8503376 39.6460496)
N1351368491|Άγιος Ιωάννης|POI|VILLAGE|19.848293|39.615896|||||49100|||||||||||||POINT(19.848293 39.615896)
N1351370506|Μαντούκι|POI|VILLAGE|19.9067105|39.6250105||||||||||||||||||POINT(19.9067105 39.6250105)
N1351513713|Ανάληψη|POI|VILLAGE|19.9246052|39.6010399||||||||||||||||||POINT(19.9246052 39.6010399)
N1351514392|Κανόνι|POI|VILLAGE|19.9206569|39.597667||||||||||||||||||POINT(19.9206569 39.597667)
N1359121611|Taxiarchis Chapel|TOURIST|RUINS|19.8504375|39.7262884|||||||||||||Ruined chapel with extensive frescoes|||||POINT(19.8504375 39.7262884)
N1360312424|The Cricketer Taverna|FOOD|RESTAURANT|19.7310912|39.6723773||||||||+302663041115||info@liapadesbeachhotel.gr||||||||POINT(19.7310912 39.6723773)
N1360312436|Liapades Beach Hotel&Apartments|ACCOMMODATION|HOTEL|19.7313219|39.6722947||||||||+302663041115||liapadesbeach@gmail.com|http://www.liapadesbeachhotel.gr|||||||POINT(19.7313219 39.6722947)
N1360312594|Boulis Taverna|FOOD|CAFE|19.7105313|39.6810189||||||||||||||||||POINT(19.7105313 39.6810189)
N1360481402|Άγιος Μάρκος|POI|VILLAGE|19.8242565|39.710135|||||49083|||||||||||||POINT(19.8242565 39.710135)
N1361204536|Σιναράδες|FOOD|CAFE|19.8482242|39.5655224||||||||||||||||||POINT(19.8482242 39.5655224)
N1361204542|Καμάρα|POI|VILLAGE|19.8650497|39.5564407|||||49084|||||||||||||POINT(19.8650497 39.5564407)
N1361204557|Apxontapiki|FOOD|RESTAURANT|19.8486172|39.5657147||||||||||||||||||POINT(19.8486172 39.5657147)
N1361204562|Αλεποχώρι|POI|HAMLET|19.8724023|39.5567784|||||49084|||||||||||||POINT(19.8724023 39.5567784)
N1361205842|Aerostato|FOOD|RESTAURANT|19.8393422|39.5648214||||||||||||||||||POINT(19.8393422 39.5648214)
N1361209152|Άνω Παυλιάνα|POI|VILLAGE|19.8612375|39.5216285|||||49084|||||||||||||POINT(19.8612375 39.5216285)
N1361209153|Κάτω Παυλιάνα|POI|VILLAGE|19.8673763|39.5250474|||||49084|||||||||||||POINT(19.8673763 39.5250474)
N1361209154|Κομιανάτα|POI|HAMLET|19.9062028|39.5295252|||||49084|||||||||||||POINT(19.9062028 39.5295252)
N1361220857|Γιαννάδες|POI|VILLAGE|19.7624617|39.6320606|||||49100|||||||||||||POINT(19.7624617 39.6320606)
N1361220860|Κρήνη|POI|VILLAGE|19.6860229|39.6850375||Krini|||49083|||||||||||||POINT(19.6860229 39.6850375)
N1363420042|Marketo|SHOP|SUPERMARKET|19.7084194|39.7832216||||||||||||||||||POINT(19.7084194 39.7832216)
N1363420546|Diellas|SHOP|SUPERMARKET|19.7075718|39.7830629||||||||||||||||||POINT(19.7075718 39.7830629)
N1363983493|Αλεπού|POI|VILLAGE|19.8952865|39.6167918|||||49100|||||||||||||POINT(19.8952865 39.6167918)
N1363983929|Πλατυτέρα|POW|CHRISTIAN|19.9103361|39.6220707||||||||||||||||||POINT(19.9103361 39.6220707)
N1363984223|Αλυκές Ποταμού|POI|VILLAGE|19.8764423|39.6343089||||||||||||||||||POINT(19.8764423 39.6343089)
N1365058879|Μπενίτσες|POI|VILLAGE|19.9133239|39.5440169|||||49084|||||||||||||POINT(19.9133239 39.5440169)
N1401213183|Iliada Beach Hotel|ACCOMMODATION|HOTEL|19.8435076|39.6533002||||||||||||||||||POINT(19.8435076 39.6533002)
N1401213187|Trust Rent a Car|TRANSPORT|RENTALCAR|19.8420636|39.6526559||||||||||||||||||POINT(19.8420636 39.6526559)
N1401213192|Tudor Inn|FOOD|CAFE|19.8422753|39.6528457||||||||||||||||||POINT(19.8422753 39.6528457)
N1401213193|Diellas|SHOP|SUPERMARKET|19.841531|39.65173||||||||||||||||||POINT(19.841531 39.65173)
N1401438911|Molfetta Beach Hotel|ACCOMMODATION|HOTEL|19.8439564|39.6532943||||||||||||||||||POINT(19.8439564 39.6532943)
N1406268158|HERMES HOTEL|ACCOMMODATION|HOTEL|19.918923|39.6226708||||||||||||||||||POINT(19.918923 39.6226708)
N1421017191|Gardikiou Grava|TOURIST|ARCHAELOGICAL|19.8817526|39.4792729||||||||||||||||||POINT(19.8817526 39.4792729)
N1421062502|Simos|FOOD|BAR|19.875971|39.4523548||||||||||||||||||POINT(19.875971 39.4523548)
N1421074304|Sirtaki|FOOD|RESTAURANT|19.9564521|39.4543796||||||||||||||||||POINT(19.9564521 39.4543796)
N1421074306|Nikolas|FOOD|RESTAURANT|19.877166|39.4561524||||||||||||||||||POINT(19.877166 39.4561524)
N1421074309|Spyros|FOOD|RESTAURANT|19.8780512|39.4585712||||||||||||||||||POINT(19.8780512 39.4585712)
N1421211653|Κουσπάδες|POI|VILLAGE|19.9780402|39.4537714|||||49080|||||||||||||POINT(19.9780402 39.4537714)
N1421247927|Σπαρτερά|POI|VILLAGE|20.0936148|39.3790563|||||49080|||||||||||||POINT(20.0936148 39.3790563)
N1421875595|Alexandros|SHOP|CONVENIENCE|20.0979011|39.4013815||||||||||||||||||POINT(20.0979011 39.4013815)
N1421875596|Save Way|SHOP|CONVENIENCE|20.0977766|39.402285||||||||||||||||||POINT(20.0977766 39.402285)
N1424312522|Cafe Royal|FOOD|CAFE|19.9170739|39.5915727||||||||||||||||||POINT(19.9170739 39.5915727)
N1424312523|Kanoni|FOOD|CAFE|19.9172691|39.5914687||||||||+30 693 680 5330|||http://www.cafekanoni.gr/|||||||POINT(19.9172691 39.5914687)
N1424565155|Harley Cafe|FOOD|CAFE|19.9412742|39.4286515||||||||||||||||||POINT(19.9412742 39.4286515)
N1424565157|Akvila Travel Company|FOOD|RESTAURANT|19.9416494|39.4281133||||||||||||Mo-Su 10:00-22:00||||||POINT(19.9416494 39.4281133)
N1424565166|Mango|FOOD|BAR|19.9418653|39.4279849||||||||||||||||Frosch Sportreisen||POINT(19.9418653 39.4279849)
N1424565168|Paradise|ACCOMMODATION|HOTEL|19.9453114|39.4307053||||||||||||||||Frosch Sportreisen||POINT(19.9453114 39.4307053)
N1424565169|Pension Dionysos|ACCOMMODATION|HOTEL|19.9450749|39.4308491||||||||||||||||Frosch Sportreisen||POINT(19.9450749 39.4308491)
N1424891742|Κανάλι|POI|VILLAGE|19.8934168|39.6089652|||||49100|||||||||||||POINT(19.8934168 39.6089652)
N1424891743|Agio Eleni|POI|VILLAGE|19.8861233|39.6087651||||||||||||||||||POINT(19.8861233 39.6087651)
N1425859534|Art Cafe|FOOD|CAFE|19.9251749|39.6256013||||||||||||||||||POINT(19.9251749 39.6256013)
N1425859542|Ακταίον|FOOD|CAFE|19.9251481|39.6218537||||||||||||||||||POINT(19.9251481 39.6218537)
N1425859543|Μνημείο Ένωσης των Επτανήσων|TOURIST|MONUMENT|19.9248331|39.6227856||||||||||||||||||POINT(19.9248331 39.6227856)
N1425859544|Johann Matthias von der Schulenburg|TOURIST|MEMORIAL|19.9256483|39.6236304||||||||||||||||||POINT(19.9256483 39.6236304)
N1425859546|Gerald Durrell|TOURIST|MEMORIAL|19.9254217|39.6243039||||||||||||||||||POINT(19.9254217 39.6243039)
N1426472052|Golden View|FOOD|RESTAURANT|19.8623446|39.5520542||||||||||||||||||POINT(19.8623446 39.5520542)
N1426478380|Sunset|FOOD|RESTAURANT|19.8209548|39.5939365||||||||||||||||||POINT(19.8209548 39.5939365)
N1426497819|Akra Levkimnis|TRANSPORT|LIGHTHOUSE|20.071938|39.4585833||||||||||||||||||POINT(20.071938 39.4585833)
N1426497868|Akra Kosteri|TRANSPORT|LIGHTHOUSE|19.7127|39.6707||||||||||||||||||POINT(19.7127 39.6707)
N1427274063|chapel|POW|CHRISTIAN|19.8336771|39.7487987||||||||||||||||||POINT(19.8336771 39.7487987)
N1427293307|Chirs Place|FOOD|RESTAURANT|19.8490224|39.5349874||||||||||||||||||POINT(19.8490224 39.5349874)
N1427299533|Πεντάτι|POI|VILLAGE|19.8481669|39.5338994|||||49084|||||||||||||POINT(19.8481669 39.5338994)
N1428648095|Ο Χρηστάκης|SHOP|CONVENIENCE|20.0827352|39.4188662||||||||||||||||||POINT(20.0827352 39.4188662)
N1431097172|Ταβέρνα Γυαλός|FOOD|RESTAURANT|19.7401625|39.7935158||Taverna Yialos|yialos beach||49081|||2663032244||stefanospettas@Gmail.com|http://www.yialos.com|24/7||||Πεττα Αγγελική||POINT(19.7401625 39.7935158)
N1432037536|House Stefanos|ACCOMMODATION|HOSTEL|19.7400599|39.793939||||||||||||||||||POINT(19.7400599 39.793939)
N1434834263|Stylia|FOOD|FASTFOOD|19.7418465|39.7857894|stylia|stylia||||||||||||||||POINT(19.7418465 39.7857894)
N1434839491|Γυαλός|POI|HAMLET|19.7404252|39.7951955||||||||||||||||||POINT(19.7404252 39.7951955)
N1435390723|Αγιος Αντρεας|POI|HAMLET|19.7516365|39.7978164||||||||||||||||||POINT(19.7516365 39.7978164)
N1437849399|Αστρακερή|POI|VILLAGE|19.755883|39.7947637|||||49081|||||||||||||POINT(19.755883 39.7947637)
N1437852025|Αγνός|POI|HAMLET|19.7606732|39.7928654||||||||||||||||||POINT(19.7606732 39.7928654)
N1447024019|Horizon Hotel|ACCOMMODATION|HOTEL|19.6494013|39.7426051||||||||||||||||||POINT(19.6494013 39.7426051)
N1491152955|bus|TRANSPORT|BUSSTOP|19.9148202|39.6079618||||||||||||||||||POINT(19.9148202 39.6079618)
N1534824385|* KOLOMBOS TRAVEL GROUP *|SHOP|MARKETPLACE|19.9953841|39.4263067||||||||||||||||||POINT(19.9953841 39.4263067)
N1627563544|Τριλογία|FOOD|RESTAURANT|19.9199791|39.7927639||Trilogia|Χωρίς Όνομα||49100|||||||||||||POINT(19.9199791 39.7927639)
N1627594571|Taverna Cavo Barbaro|FOOD|RESTAURANT|19.9388297|39.7786072||Taverna Cavo Barbaro||||||||||||||||POINT(19.9388297 39.7786072)
N1662148470|Rema|SHOP|GIFT|19.8180028|39.7931429||||||||||||||||||POINT(19.8180028 39.7931429)
N1662156473|AVLI RESTAURANT|FOOD|RESTAURANT|19.9225483|39.6108167||||||||||||||||||POINT(19.9225483 39.6108167)
N1662156906|Sconto Market|SHOP|SUPERMARKET|19.9223605|39.6107279||||||||||||||||||POINT(19.9223605 39.6107279)
N1662159455|Corfu Palace|ACCOMMODATION|HOTEL|19.9228246|39.619499||||||||||||||||||POINT(19.9228246 39.619499)
N1690300121|FOROS|FOOD|RESTAURANT|19.8750694|39.7648537||||||||||||||||||POINT(19.8750694 39.7648537)
N1736531465|Emily's Apartments|ACCOMMODATION|HOTEL|19.9227208|39.7839621||||||||||||||||||POINT(19.9227208 39.7839621)
N1736535843|Kassiopi Central Market|SHOP|SUPERMARKET|19.920508|39.7876845|||Archaiou Nomismatokopeiou|20|49081||||||www.emilysapartments.gr|||||||POINT(19.920508 39.7876845)
N1751018587|MARINA GOYVION|TRANSPORT|MARINA|19.8525269|39.6488122||||||||||||||||||POINT(19.8525269 39.6488122)
N1755780297|1ο & 2ο & 3ο Λύκειο|EDUCATION|SCHOOL|19.9145899|39.6218061||||||||||||||||||POINT(19.9145899 39.6218061)
N1770612969|Europa|ACCOMMODATION|HOTEL|19.9088936|39.6244892||||||||||||||||||POINT(19.9088936 39.6244892)
N1770622357|Dionysus camping village|ACCOMMODATION|CAMPING|19.8449296|39.6649902|||||||||||dionysuscamping.gr|||||||POINT(19.8449296 39.6649902)
N1770722018|Ερεικούσσα|POI|VILLAGE|19.5808003|39.8833243|||||49100||||||||||||el.wikipedia.org/wiki/Ερεικούσσα|POINT(19.5808003 39.8833243)
N1771624439|Άγιος Δημήτριος|POI|VILLAGE|19.9493754|39.460422|||||49080|||||||||||||POINT(19.9493754 39.460422)
N1771624441|Άγιος Ματθαίος|POI|VILLAGE|19.8728635|39.4939685|||||49084|||||||||||||POINT(19.8728635 39.4939685)
N1771624442|Άγιος Νικόλαος|POI|VILLAGE|19.9970907|39.4417751|||||49080|||||||||||||POINT(19.9970907 39.4417751)
N1771624445|Βασιλάτικα|POI|VILLAGE|19.9846921|39.4538659|||||49080|||||||||||||POINT(19.9846921 39.4538659)
N1771624446|Βιταλάδες|POI|VILLAGE|20.0217987|39.4106062|||||49080|||||||||||||POINT(20.0217987 39.4106062)
N1771624448|Γαρδένος|POI|HAMLET|20.0228462|39.3955864|||||49080|||||||||||||POINT(20.0228462 39.3955864)
N1771624450|Δαφνάτα|POI|VILLAGE|19.9065883|39.5323939|||||49084|||||||||||||POINT(19.9065883 39.5323939)
N1771624451|Δραγωτινά|POI|VILLAGE|20.0834413|39.383407|||||49080|||||||||||||POINT(20.0834413 39.383407)
N1771624452|Επισκοπιανά|POI|VILLAGE|19.9185613|39.4950428|||||49084|||||||||||||POINT(19.9185613 39.4950428)
N1771624454|Κάτω Σπήλαιο|POI|HAMLET|19.9389294|39.4639568|||||49080|||||||||||||POINT(19.9389294 39.4639568)
N1771624455|Κορακάδες|POI|VILLAGE|19.9893296|39.4564069|||||49080|||||||||||||POINT(19.9893296 39.4564069)
N1771624458|Κορνάτα|POI|VILLAGE|19.9012471|39.5172619|||||49084|||||||||||||POINT(19.9012471 39.5172619)
N1771624462|Κρητικά|POI|VILLAGE|20.052508|39.3934355|||||49080|||||||||||||POINT(20.052508 39.3934355)
N1771624463|Λίνια|POI|HAMLET|19.9428548|39.4411973|||||49080|||||||||||||POINT(19.9428548 39.4411973)
N1771624465|Λουκάτα|POI|HAMLET|19.9019014|39.5379467|||||49084|||||||||||||POINT(19.9019014 39.5379467)
N1771624466|Μακράτα|POI|HAMLET|19.8989539|39.5389313|||||49084|||||||||||||POINT(19.8989539 39.5389313)
N1771624469|Μαραθιάς|POI|VILLAGE|19.9954146|39.4271882|||||49080|||||||||||||POINT(19.9954146 39.4271882)
N1771624472|Μπούκαρης|POI|HAMLET|19.9796946|39.4591744|||||49080|||||||||||||POINT(19.9796946 39.4591744)
N1771624473|Μώλος|POI|HAMLET|20.0459689|39.4383178|||||49080|||||||||||||POINT(20.0459689 39.4383178)
N1771624474|Νεοχωράκι|POI|VILLAGE|19.9798592|39.4406565|||||49080|||||||||||||POINT(19.9798592 39.4406565)
N1771624476|Νεοχώρι|POI|VILLAGE|20.0773524|39.3942732|||||49080|||||||||||||POINT(20.0773524 39.3942732)
N1771624479|Νότος|POI|VILLAGE|20.0037269|39.4472103|||||49080|||||||||||||POINT(20.0037269 39.4472103)
N1771624480|Παλαιοχώρι|POI|VILLAGE|20.067613|39.3895079|||||49080|||||||||||||POINT(20.067613 39.3895079)
N1771624481|Παραμόνας|POI|HAMLET|19.8550343|39.5033193|||||49084|||||||||||||POINT(19.8550343 39.5033193)
N1771624483|Περιβόλι|POI|VILLAGE|20.0148607|39.4202959|||||49080|||||||||||||POINT(20.0148607 39.4202959)
N1771624485|Ποτάμια|POI|HAMLET|19.9872549|39.4140592|||||49080|||||||||||||POINT(19.9872549 39.4140592)
N1771624486|Ρουμανάδες|POI|HAMLET|19.9933899|39.4396076|||||49080|||||||||||||POINT(19.9933899 39.4396076)
N1771624490|Σκάλα|POI|HAMLET|19.8539987|39.4998941|||||49084|||||||||||||POINT(19.8539987 39.4998941)
N1771624491|Στρογγυλή|POI|VILLAGE|19.9104777|39.5086931|||||49084|||||||||||||POINT(19.9104777 39.5086931)
N1771624492|Χαλιδιάτα|POI|HAMLET|19.9030287|39.5354995|||||49084|||||||||||||POINT(19.9030287 39.5354995)
N1771624493|Χαλικούνας|POI|VILLAGE|19.8806714|39.4626207|||||49084|||||||||||||POINT(19.8806714 39.4626207)
N1771624496|Ψαράς|POI|HAMLET|19.9497513|39.4674824|||||49080|||||||||||||POINT(19.9497513 39.4674824)
N1771632242|Άγιοι Δέκα|POI|VILLAGE|19.8868065|39.5546525|||||49084|||||||||||||POINT(19.8868065 39.5546525)
N1771632243|Άνω Γαρούνα|POI|VILLAGE|19.8725113|39.5464984|||||49084|||||||||||||POINT(19.8725113 39.5464984)
N1771632244|Ασπάι|POI|HAMLET|19.8478574|39.551876|||||49084|||||||||||||POINT(19.8478574 39.551876)
N1771632246|Κάτω Γαρούνα|POI|VILLAGE|19.8646829|39.5390644|||||49084|||||||||||||POINT(19.8646829 39.5390644)
N1771649732|Άγιος Προκόπιος|POI|VILLAGE|19.8753214|39.5702425|||||49084|||||||||||||POINT(19.8753214 39.5702425)
N1771649733|Γαστούρι|POI|VILLAGE|19.8988412|39.5614979|||||49084|||||||||||||POINT(19.8988412 39.5614979)
N1771649735|Καρδαμάτικα|POI|HAMLET|19.8677066|39.5588914|||||49084|||||||||||||POINT(19.8677066 39.5588914)
N1771649736|Κουραμάδες|POI|VILLAGE|19.8547568|39.5712311|||||49084|||||||||||||POINT(19.8547568 39.5712311)
N1771649741|Πέραμα|POI|HAMLET|19.9128279|39.5797681|||||49084|||||||||||||POINT(19.9128279 39.5797681)
N1771649745|Πικουλάτικα|POI|HAMLET|19.9024671|39.5797318|||||49084|||||||||||||POINT(19.9024671 39.5797318)
N1771656057|Άγιος Γεώργιος|POI|HAMLET|19.8770168|39.5900426|||||49084|||||||||||||POINT(19.8770168 39.5900426)
N1771656061|Βιρός|POI|VILLAGE|19.8828348|39.5843566|||||49084|||||||||||||POINT(19.8828348 39.5843566)
N1771656065|Εσταυρωμένος|POI|HAMLET|19.8733899|39.5776275|||||49084|||||||||||||POINT(19.8733899 39.5776275)
N1771656070|Καλαφατιώνες|POI|VILLAGE|19.8592842|39.5802582|||||49084|||||||||||||POINT(19.8592842 39.5802582)
N1771656074|Καστανιά|POI|VILLAGE|19.8846595|39.5930518|||||49084|||||||||||||POINT(19.8846595 39.5930518)
N1771656078|Μπαστούνι|POI|HAMLET|19.8803975|39.5960579|||||49084|||||||||||||POINT(19.8803975 39.5960579)
N1771656082|Σουλαίικα|POI|VILLAGE|19.8892945|39.5803945|||||49084|||||||||||||POINT(19.8892945 39.5803945)
N1771656086|Χρυσηίδα|POI|VILLAGE|19.8987813|39.5902274|||||49084|||||||||||||POINT(19.8987813 39.5902274)
N1771670355|Βαρυπατάδες|POI|VILLAGE|19.8485172|39.5845909|||||49084|||||||||||||POINT(19.8485172 39.5845909)
N1771670356|Κομπίτσι|POI|VILLAGE|19.8668966|39.6019499|||||49100|||||||||||||POINT(19.8668966 39.6019499)
N1772947120|Άγιος Βλάσιος|POI|HAMLET|19.8635128|39.6137762|||||49100|||||||||||||POINT(19.8635128 39.6137762)
N1772947121|Άφρα|POI|VILLAGE|19.8579842|39.6220196|||||49100|||||||||||||POINT(19.8579842 39.6220196)
N1772947122|Ύψος|POI|VILLAGE|19.837433|39.6948869|||||49083|||||||||||||POINT(19.837433 39.6948869)
N1772947130|Αγία Τριάδα|POI|HAMLET|19.8436491|39.6072816|||||49100|||||||||||||POINT(19.8436491 39.6072816)
N1772947135|Αγνίτσινη|POI|VILLAGE|19.9335033|39.7590418|||||49100|||||||||||||POINT(19.9335033 39.7590418)
N1772947139|Ανάληψη|POI|HAMLET|19.8235307|39.7010721|||||49083|||||||||||||POINT(19.8235307 39.7010721)
N1772947143|Βάτος|POI|VILLAGE|19.7906667|39.6084354|||||49100|||||||||||||POINT(19.7906667 39.6084354)
N1772947147|Βασιλικά|POI|HAMLET|19.8279614|39.6213574|||||49100|||||||||||||POINT(19.8279614 39.6213574)
N1772947149|Εβροπούλοι|POI|VILLAGE|19.8669215|39.6245515|||||49100|||||||||||||POINT(19.8669215 39.6245515)
N1772947150|Κάτω Άγιος Μάρκος|POI|VILLAGE|19.8393241|39.7032826|||||49083|||||||||||||POINT(19.8393241 39.7032826)
N1772947152|Κανακάδες|POI|VILLAGE|19.7621275|39.6494824|||||49100|||||||||||||POINT(19.7621275 39.6494824)
N1772947156|Κοκκινόγεια|POI|HAMLET|19.8056917|39.6034333|||||49100|||||||||||||POINT(19.8056917 39.6034333)
N1772947157|Κοντογιαλός|POI|HAMLET|19.8214551|39.5850329|||||49084|||||||||||||POINT(19.8214551 39.5850329)
N1772947158|Κουραμαδίτικα|POI|VILLAGE|19.8030827|39.6314781|||||49100|||||||||||||POINT(19.8030827 39.6314781)
N1772947159|Μάρμαρο|POI|VILLAGE|19.7630749|39.6431598|||||49100|||||||||||||POINT(19.7630749 39.6431598)
N1772947160|Μονή Υπεραγίας Θεοτόκου Μυρτιδίων|POW|CHRISTIAN|19.7933155|39.5971502|||||49100|||||||||||||POINT(19.7933155 39.5971502)
N1772947161|Πλακωτό|POI|HAMLET|19.8150853|39.5968183|||||49100|||||||||||||POINT(19.8150853 39.5968183)
N1772947162|Τεμπλόνι|POI|VILLAGE|19.80472|39.6404427|||||49100|||||||||||||POINT(19.80472 39.6404427)
N1772970079|Αφιώνας|POI|VILLAGE|19.660049|39.7247935||Afionas|||49081|||||||||||||POINT(19.660049 39.7247935)
N1772970080|Μαγουλάδες|POI|VILLAGE|19.676643|39.7562737|||||49081|||||||||||||POINT(19.676643 39.7562737)
N1773882023|Άγιος Αθανάσιος|POI|VILLAGE|19.7200443|39.7258574|||||49083|||||||||||||POINT(19.7200443 39.7258574)
N1773882024|Άγιος Βασίλειος|POI|HAMLET|19.8167194|39.6858714|||||49083|||||||||||||POINT(19.8167194 39.6858714)
N1773882025|Αγία Άννα|POI|HAMLET|19.7315671|39.6970992|||||49083|||||||||||||POINT(19.7315671 39.6970992)
N1773882026|Αλειμματάδες|POI|VILLAGE|19.7257639|39.6970806|||||49083|||||||||||||POINT(19.7257639 39.6970806)
N1773882027|Ασπιωτάδες|POI|HAMLET|19.7139038|39.7205367||Aspiotades|||49083|||||||||||||POINT(19.7139038 39.7205367)
N1773882028|Βαλανείο|POI|VILLAGE|19.7560168|39.7337876|||||49081|||||||||||||POINT(19.7560168 39.7337876)
N1773882029|Γαβράδες|POI|HAMLET|19.7076725|39.7347395|||||49081|||||||||||||POINT(19.7076725 39.7347395)
N1773882030|Γαζάτικα|POI|HAMLET|19.8179443|39.6754671|||||49083|||||||||||||POINT(19.8179443 39.6754671)
N1773882031|Γαρδελάδες|POI|VILLAGE|19.744302|39.6796386|||||49083|||||||||||||POINT(19.744302 39.6796386)
N1773882032|Δάφνη|POI|VILLAGE|19.6983745|39.7298557||Dafni|||49081|||||||||||||POINT(19.6983745 39.7298557)
N1773882033|Δουκάδες|POI|VILLAGE|19.7399816|39.6889963||Doukades|||49083|||||||||||||POINT(19.7399816 39.6889963)
N1773882034|Δροσάτο|POI|VILLAGE|19.7366439|39.7335094|||||49083|||||||||||||POINT(19.7366439 39.7335094)
N1773882035|Ζυγός|POI|VILLAGE|19.8039411|39.7262222|||||49083|||||||||||||POINT(19.8039411 39.7262222)
N1773882036|Κληματιά|POI|VILLAGE|19.784548|39.7415843|||||49081|||||||||||||POINT(19.784548 39.7415843)
N1773882037|Κυπριανάδες|POI|VILLAGE|19.7654641|39.7408429|||||49081|||||||||||||POINT(19.7654641 39.7408429)
N1773882038|Μακράδες|POI|VILLAGE|19.6886401|39.6896383||Makrades|||49083|||||||||||||POINT(19.6886401 39.6896383)
N1773882039|Μανατάδες|POI|HAMLET|19.7178819|39.7214004||Manatades|||49083|||||||||||||POINT(19.7178819 39.7214004)
N1773882040|Μεσαριά|POI|VILLAGE|19.7241566|39.7393494|||||49083|||||||||||||POINT(19.7241566 39.7393494)
N1773882041|Πουλάδες|POI|HAMLET|19.8094367|39.6639112|||||49083|||||||||||||POINT(19.8094367 39.6639112)
N1773882043|Σκριπερό|POI|VILLAGE|19.774194|39.7000535|||||49083|||||||||||||POINT(19.774194 39.7000535)
N1773882044|Τρουμπέττας|POI|HAMLET|19.7472704|39.7067996|||||49083|||||||||||||POINT(19.7472704 39.7067996)
N1773882045|Χωρεπίσκοποι|POI|VILLAGE|19.7417996|39.7221629|||||49083|||||||||||||POINT(19.7417996 39.7221629)
N1773889441|Αγία Παρασκευή|POI|HAMLET|19.7473994|39.7610366|||||49081|||||||||||||POINT(19.7473994 39.7610366)
N1773889442|Καβαλλούρι|POI|VILLAGE|19.7535882|39.7759457|||||49081|||||||||||||POINT(19.7535882 39.7759457)
N1773893762|Βελονάδες|POI|VILLAGE|19.7090999|39.7523913|||||49081|||||||||||||POINT(19.7090999 39.7523913)
N1773893763|Κοψοχειλάδες|POI|VILLAGE|19.7233007|39.7484965|||||49083|||||||||||||POINT(19.7233007 39.7484965)
N1773893764|Ψαθύλας|POI|HAMLET|19.717912|39.7459662|||||49083|||||||||||||POINT(19.717912 39.7459662)
N1773898913|Αρμενάδες|POI|VILLAGE|19.6900783|39.7445594|||||49081|||||||||||||POINT(19.6900783 39.7445594)
N1773898914|Καββαδάδες|POI|VILLAGE|19.6810729|39.7464234||Kavadades|||49081|||||||||||||POINT(19.6810729 39.7464234)
N1773898915|Κουναβάδες|POI|HAMLET|19.6969436|39.7586465|||||49081|||||||||||||POINT(19.6969436 39.7586465)
N1773904463|Αυλιώτες|POI|VILLAGE|19.6618451|39.7770234|||||49081|||||||||||||POINT(19.6618451 39.7770234)
N1773904464|Γουσάδες|POI|VILLAGE|19.7008423|39.7768228|||||49081|||||||||||||POINT(19.7008423 39.7768228)
N1773904465|Κουκνικάδες|POI|HAMLET|19.6766041|39.7729477|||||49081|||||||||||||POINT(19.6766041 39.7729477)
N1773904466|Περουλάδες|POI|VILLAGE|19.6720813|39.787168|||||49081|||||||||||||POINT(19.6720813 39.787168)
N1773904467|Πουλημάτες|POI|HAMLET|19.6884315|39.7606905|||||49081|||||||||||||POINT(19.6884315 39.7606905)
N1773904468|Τερμενάδες|POI|HAMLET|19.6904407|39.7360857||Termenades|||49081|||||||||||||POINT(19.6904407 39.7360857)
N1773927867|Δροσερή|POI|HAMLET|19.827427|39.7557489|||||49100|||||||||||||POINT(19.827427 39.7557489)
N1773935676|Κάρνιαρης|POI|HAMLET|19.8632542|39.8115049|||||49100|||||||||||||POINT(19.8632542 39.8115049)
N1773943758|Περούλι|POI|HAMLET|19.8633898|39.8009154|||||49100|||||||||||||POINT(19.8633898 39.8009154)
N1773943759|Φουρνί|POI|HAMLET|19.8258799|39.7696581|||||49100|||||||||||||POINT(19.8258799 39.7696581)
N1773949889|Βραχλερή|POI|VILLAGE|19.8364317|39.7826623|||||49100|||||||||||||POINT(19.8364317 39.7826623)
N1773949890|Λαζαράτικα|POI|HAMLET|19.8227109|39.7756765|||||49100|||||||||||||POINT(19.8227109 39.7756765)
N1773949891|Πριφτιάτικα|POI|HAMLET|19.8219351|39.7779202|||||49100|||||||||||||POINT(19.8219351 39.7779202)
N1773954155|Βαθύ|POI|HAMLET|19.8689636|39.7951625|||||49100|||||||||||||POINT(19.8689636 39.7951625)
N1773954156|Βουνί|POI|HAMLET|19.8609805|39.7924373|||||49100|||||||||||||POINT(19.8609805 39.7924373)
N1773954157|Ψαχνιά|POI|HAMLET|19.8470711|39.7847803|||||49100|||||||||||||POINT(19.8470711 39.7847803)
N1777279286|JOY'S|FOOD|RESTAURANT|19.8288498|39.6893652||||||||||||||||||POINT(19.8288498 39.6893652)
N1777282375|Villa Anna Castello|ACCOMMODATION|HOTEL|19.8333852|39.6903838||||||||||||||||||POINT(19.8333852 39.6903838)
N1782477091|75 steps רומנטי? לארוחת ערב|FOOD|RESTAURANT|19.9391846|39.4641411||||||||+30 26610750028||||||||||POINT(19.9391846 39.4641411)
N1798757495|Αρχαιολογικό Μουσείο Κέρκυρας|TOURIST|MUSEUM|19.9219124|39.6188108|||||||||||||||||el.wikipedia.org/wiki/Αρχαιολογικό Μουσείο Κέρκυρας|POINT(19.9219124 39.6188108)
N1798840991|Πρινύλας|POI|HAMLET|19.6967415|39.7048879||Prinilas|||49083|||||||||||||POINT(19.6967415 39.7048879)
N1798840996|Πάγοι|POI|HAMLET|19.7022945|39.7080693||Pagi|||49083|||||||||||||POINT(19.7022945 39.7080693)
N1827940513|Άγιος Γεώργιος|POI|VILLAGE|19.9486274|39.4286335|||||49080|||||||||||||POINT(19.9486274 39.4286335)
N1827940519|Αγρός|POI|VILLAGE|19.7246852|39.721106||Agros|||49083|||||||||||||POINT(19.7246852 39.721106)
N1827940523|Αρκαδάδες|POI|VILLAGE|19.7305468|39.7093965||Arkadades|||49083|||||||||||||POINT(19.7305468 39.7093965)
N1827940525|Βατωνιές|POI|VILLAGE|19.7164691|39.7030889||Vatonies|||49083|||||||||||||POINT(19.7164691 39.7030889)
N1827940532|Κέρκυρα|POI|CITY|19.9210427|39.624247||Kerkyra|||49100||||||||||||el.wikipedia.org/wiki/Κέρκυρα (πόλη)|POINT(19.9210427 39.624247)
N1827940535|Καστελλάνοι|POI|VILLAGE|19.7368726|39.7113072|||||49083|||||||||||||POINT(19.7368726 39.7113072)
N1827940544|Χλομός|POI|VILLAGE|19.9577759|39.4566835|||||49080|||||||||||||POINT(19.9577759 39.4566835)
N1839187337|Pane e Souvlaki|FOOD|FASTFOOD|19.9224468|39.6236904|||||||||||http://panesouvlaki.com/|||||||POINT(19.9224468 39.6236904)
N1842645238|3K's|SHOP|SUPERMARKET|19.926287|39.4791194||||||||||||||||||POINT(19.926287 39.4791194)
N1842855347|Εκδοτήριο Lefkimmi Lines|SHOP|DEPARTMENTSTORE|20.0960517|39.4141265||||||||+30 26620 23323|||http://www.lefkimmilines.gr|||||||POINT(20.0960517 39.4141265)
N1872478399|Villa Akis|ACCOMMODATION|HOTEL|19.6755133|39.7213211||||||||||||||||||POINT(19.6755133 39.7213211)
N1917127031|Mon Amour|FOOD|RESTAURANT|19.6782499|39.7450833||||||||||||||||||POINT(19.6782499 39.7450833)
N1917127032|Tria Adelphia|FOOD|RESTAURANT|19.6617251|39.7424486||||||||||||||||||POINT(19.6617251 39.7424486)
N1936480698|Bakery Arillas|SHOP|BAKERY|19.6585086|39.7441056||||||||||||08:00-15:00,18:00-21:00||||||POINT(19.6585086 39.7441056)
N1936487483|Bakery Kavvadades|SHOP|BAKERY|19.6801178|39.7463652||||||||||||||||||POINT(19.6801178 39.7463652)
N1943275973|Taverna Plori|FOOD|RESTAURANT|19.8528731|39.5005444||||||||||||||||||POINT(19.8528731 39.5005444)
N1943275976|Paramonas Villas|ACCOMMODATION|HOTEL|19.8552633|39.5035625||||||||||||||||||POINT(19.8552633 39.5035625)
N1943284677|Shell|TRANSPORT|FUEL|19.8746335|39.498646||||||||||||||||||POINT(19.8746335 39.498646)
N1966515637|Corfu Chandris|ACCOMMODATION|HOTEL|19.8387921|39.6799588||||||||||||||||||POINT(19.8387921 39.6799588)
N1966515640|Dassia Chandris|ACCOMMODATION|HOTEL|19.839683|39.6779094||||||||||||||||||POINT(19.839683 39.6779094)
N1968743846|Central Cafe|FOOD|CAFE|20.0622827|39.4224585||||||||||||||||||POINT(20.0622827 39.4224585)
N1968743850|Delsol Cafe Bar|FOOD|CAFE|20.0637454|39.4233883||||||||||||||||||POINT(20.0637454 39.4233883)
N1968743853|Έδεσμα|FOOD|RESTAURANT|20.078633|39.4213518||||||||||||||||||POINT(20.078633 39.4213518)
N1968743856|Μεθυστάνες (μεζεδοπωλείο - ψησταριά)|FOOD|RESTAURANT|20.0639087|39.4233742||||||||||||||||||POINT(20.0639087 39.4233742)
N1968743859|Νέον Καφέ|FOOD|CAFE|20.062665|39.423048||||||||||||||||||POINT(20.062665 39.423048)
N1968743862|Venus|FOOD|RESTAURANT|20.0641147|39.424202||||||||+302662022210||||||||||POINT(20.0641147 39.424202)
N1980640525|Andreas|FOOD|RESTAURANT|19.8414582|39.6833471||||||||||||||||||POINT(19.8414582 39.6833471)
N1980640532|ELIN|TRANSPORT|FUEL|19.8392755|39.6753877||||||||||||||||||POINT(19.8392755 39.6753877)
N1980640535|Hermes|TRANSPORT|RENTALCAR|19.839361|39.6764368||||||||||||||||||POINT(19.839361 39.6764368)
N1980640537|La Casa|FOOD|RESTAURANT|19.8391013|39.674616||||||||||||||||||POINT(19.8391013 39.674616)
N1980640538|La Plaz|FOOD|RESTAURANT|19.8413117|39.6830013||||||||||||||||||POINT(19.8413117 39.6830013)
N1980640544|Malibu|FOOD|RESTAURANT|19.8407159|39.6812046||||||||||||||||||POINT(19.8407159 39.6812046)
N1980640567|Scheria|ACCOMMODATION|HOTEL|19.8418397|39.6851635||||||||||||||||||POINT(19.8418397 39.6851635)
N1980644094|EKO|TRANSPORT|FUEL|19.838491|39.6870664||||||||||||||||||POINT(19.838491 39.6870664)
N1980644095|Extra|SHOP|SUPERMARKET|19.8374598|39.6808738||||||||||||||||||POINT(19.8374598 39.6808738)
N1980644096|Kirki|FOOD|RESTAURANT|19.838372|39.6789831||||||||||||||||||POINT(19.838372 39.6789831)
N1980644097|La Bonita|FOOD|RESTAURANT|19.8379733|39.6852411||||||||||||||||||POINT(19.8379733 39.6852411)
N1980644098|La Veranda|FOOD|RESTAURANT|19.8373134|39.6810788||||||||||||||||||POINT(19.8373134 39.6810788)
N1980644110|Oscar|ACCOMMODATION|HOTEL|19.8384252|39.6787781||||||||||||||||||POINT(19.8384252 39.6787781)
N1980644113|Primavera|ACCOMMODATION|HOTEL|19.8399738|39.6729362||||||||(+30) 26610 97019|||http://www.primaverahotel.gr/|||||||POINT(19.8399738 39.6729362)
N1980644181|Victoria Hotel|ACCOMMODATION|HOTEL|19.8362748|39.6849779||||||||||||||||||POINT(19.8362748 39.6849779)
N1983913575|Milto`s|FOOD|RESTAURANT|19.8434519|39.7060824||||||||||||||||||POINT(19.8434519 39.7060824)
N1983913576|Asteria|FOOD|RESTAURANT|19.8378|39.6948315||||||||||||||||||POINT(19.8378 39.6948315)
N1983913577|Da Marco|FOOD|RESTAURANT|19.8378156|39.6959934||||||||||||||||||POINT(19.8378156 39.6959934)
N1983913578|Ipsos Beach|ACCOMMODATION|CAMPING|19.8374314|39.6959285||||||||||||||||||POINT(19.8374314 39.6959285)
N1983913579|Ipsos|TRANSPORT|BUSSTOP|19.8385288|39.6981761||||||||||||||||||POINT(19.8385288 39.6981761)
N1983913580|Mega|ACCOMMODATION|HOTEL|19.8390445|39.6995065||||||||||||||||||POINT(19.8390445 39.6995065)
N1983913581|Mouratoros|FOOD|CAFE|19.8429362|39.6874175||||||||||||||||||POINT(19.8429362 39.6874175)
N1983913582|Peking|FOOD|RESTAURANT|19.8399221|39.7010132||||||||||||||||||POINT(19.8399221 39.7010132)
N1983913627|Naoyza|FOOD|RESTAURANT|19.838865|39.6992446||||||||||||||||||POINT(19.838865 39.6992446)
N1983913629|Sally's|FOOD|RESTAURANT|19.8378781|39.6964403||||||||||||||||||POINT(19.8378781 39.6964403)
N1983913636|Saveway|SHOP|CONVENIENCE|19.8386776|39.6989178||||||||||||||||||POINT(19.8386776 39.6989178)
N1983913638|Stathis|FOOD|RESTAURANT|19.8412698|39.70326||||||||||||||||||POINT(19.8412698 39.70326)
N1983913639|Sunrise|ACCOMMODATION|CHALET|19.8400845|39.7012487||||||||||||||||||POINT(19.8400845 39.7012487)
N1983921478|Bistro Vinieri|FOOD|RESTAURANT|19.8356826|39.6856316||||||||||||||||||POINT(19.8356826 39.6856316)
N1983921479|L'Incontro|FOOD|CAFE|19.8167138|39.6900923||||||||||||||||||POINT(19.8167138 39.6900923)
N1983921507|Taverna Limeri|FOOD|RESTAURANT|19.8301267|39.6889047||||||||||||||||||POINT(19.8301267 39.6889047)
N1983921508|Taverna Panorama|FOOD|RESTAURANT|19.8335414|39.6896978||||||||||||||||||POINT(19.8335414 39.6896978)
N1987958769|Corfu Chandris|TRANSPORT|BUSSTOP|19.8382708|39.6799116||||||||||||||||||POINT(19.8382708 39.6799116)
N1987958774|Corfu Chandris|TRANSPORT|BUSSTOP|19.83844|39.6800234||||||||||||||||||POINT(19.83844 39.6800234)
N1987958776|Dafnila|TRANSPORT|BUSSTOP|19.8434838|39.666707||||||||||||||||||POINT(19.8434838 39.666707)
N1987958780|Dafnila|TRANSPORT|BUSSTOP|19.8433527|39.6667523||||||||||||||||||POINT(19.8433527 39.6667523)
N1987958786|Dassia Terma|TRANSPORT|BUSSTOP|19.8377393|39.6848272||||||||||||||||||POINT(19.8377393 39.6848272)
N1987958795|Dassia Terma|TRANSPORT|BUSSTOP|19.8375713|39.6850597||||||||||||||||||POINT(19.8375713 39.6850597)
N1987958796|Komeno|TRANSPORT|BUSSTOP|19.8433843|39.6625534||||||||||||||||||POINT(19.8433843 39.6625534)
N1987958797|Magna Grecian|TRANSPORT|BUSSTOP|19.8395633|39.6757763||||||||||||||||||POINT(19.8395633 39.6757763)
N1987958800|Magna Grecian|TRANSPORT|BUSSTOP|19.8394357|39.6758737||||||||||||||||||POINT(19.8394357 39.6758737)
N1987958803|Malibou|TRANSPORT|BUSSTOP|19.8376907|39.6822461||||||||||||||||||POINT(19.8376907 39.6822461)
N1987958806|Malibou|TRANSPORT|BUSSTOP|19.8375064|39.6821957||||||||||||||||||POINT(19.8375064 39.6821957)
N1987958809|Merli|TRANSPORT|BUSSTOP|19.8422534|39.6685944||||||||||||||||||POINT(19.8422534 39.6685944)
N1987958812|Merli|TRANSPORT|BUSSTOP|19.8422851|39.6688249||||||||||||||||||POINT(19.8422851 39.6688249)
N1987958815|Primavera|TRANSPORT|BUSSTOP|19.8395587|39.6723058||||||||||||||||||POINT(19.8395587 39.6723058)
N1987958823|Primavera|TRANSPORT|BUSSTOP|19.8397566|39.672514||||||||||||||||||POINT(19.8397566 39.672514)
N1987958824|guapo cocktail bar|FOOD|BAR|19.8449497|39.6628424||||||||||||||||||POINT(19.8449497 39.6628424)
N1987958825|Tsavros|TRANSPORT|BUSSTOP|19.839576|39.6600761||||||||||||||||||POINT(19.839576 39.6600761)
N1987958828|Tsavros|TRANSPORT|BUSSTOP|19.8395901|39.6602494||||||||||||||||||POINT(19.8395901 39.6602494)
N1987964547|Agia...|TRANSPORT|BUSSTOP|19.8716756|39.6367467||||||||||||||||||POINT(19.8716756 39.6367467)
N1987964548|Gefura|TRANSPORT|BUSSTOP|19.8862|39.6294405||||||||||||||||||POINT(19.8862 39.6294405)
N1987964549|Gefura|TRANSPORT|BUSSTOP|19.8863234|39.6296387||||||||||||||||||POINT(19.8863234 39.6296387)
N1987964550|Στάση Γκίκα|TRANSPORT|BUSSTOP|19.9144663|39.6215587||||||||||||||||||POINT(19.9144663 39.6215587)
N1987964551|Goubino Park Hotel|ACCOMMODATION|HOTEL|19.8384046|39.6576537||||||||||||||||||POINT(19.8384046 39.6576537)
N1987964552|Gouvia|TRANSPORT|BUSSTOP|19.8426412|39.6515464||||||||||||||||||POINT(19.8426412 39.6515464)
N1987964553|Gouvia|TRANSPORT|BUSSTOP|19.8427987|39.6517415||||||||||||||||||POINT(19.8427987 39.6517415)
N1987964554|Kerkira Golf|TRANSPORT|BUSSTOP|19.882835|39.6319587||||||||||||||||||POINT(19.882835 39.6319587)
N1987964555|Kontokali|TRANSPORT|BUSSTOP|19.8507524|39.6445366||||||||||||||||||POINT(19.8507524 39.6445366)
N1987964556|Kontokali|TRANSPORT|BUSSTOP|19.8508671|39.6447193||||||||||||||||||POINT(19.8508671 39.6447193)
N1987964557|Korkira|TRANSPORT|BUSSTOP|19.8405859|39.6550813||||||||||||||||||POINT(19.8405859 39.6550813)
N1987964558|Korkira|TRANSPORT|BUSSTOP|19.8401536|39.6552789||||||||||||||||||POINT(19.8401536 39.6552789)
N1987964559|Magasaki|TRANSPORT|BUSSTOP|19.877073|39.6344685||||||||||||||||||POINT(19.877073 39.6344685)
N1987964560|Magasaki|TRANSPORT|BUSSTOP|19.877154|39.6346505||||||||||||||||||POINT(19.877154 39.6346505)
N1987964561|Pipilas|TRANSPORT|BUSSTOP|19.8542471|39.6443928||||||||||||||||||POINT(19.8542471 39.6443928)
N1987964562|Pipilas|TRANSPORT|BUSSTOP|19.8534898|39.6444953||||||||||||||||||POINT(19.8534898 39.6444953)
N1987964563|Πολυκλινική|TRANSPORT|BUSSTOP|19.9072513|39.6214897||||||||||||||||||POINT(19.9072513 39.6214897)
N1987964578|Spiti Prifti|TRANSPORT|BUSSTOP|19.8464508|39.6481366||||||||||||||||||POINT(19.8464508 39.6481366)
N1987964579|Spiti Prifti|TRANSPORT|BUSSTOP|19.8461523|39.6481242||||||||||||||||||POINT(19.8461523 39.6481242)
N1987964580|Sunset|TRANSPORT|BUSSTOP|19.8797852|39.6332929||||||||||||||||||POINT(19.8797852 39.6332929)
N1987964581|Sunset|TRANSPORT|BUSSTOP|19.8800002|39.6334844||||||||||||||||||POINT(19.8800002 39.6334844)
N1987964582|Tsoris|TRANSPORT|BUSSTOP|19.8881862|39.6276077||||||||||||||||||POINT(19.8881862 39.6276077)
N1987964583|Tsoris|TRANSPORT|BUSSTOP|19.8883989|39.6276182||||||||||||||||||POINT(19.8883989 39.6276182)
N1989297754|Acharavi Park|FOOD|RESTAURANT|19.8141947|39.7911898||||||||||||||||||POINT(19.8141947 39.7911898)
N1989297757|Bella Vista|FOOD|RESTAURANT|19.699055|39.6790443||||||||||||||||||POINT(19.699055 39.6790443)
N1989297763|Taverna Colombos|FOOD|RESTAURANT|19.6902499|39.6869534||||||||||||||||||POINT(19.6902499 39.6869534)
N1989304848|Παλαιό Φρούριο|FOOD|CAFE|19.9284857|39.6231211||||||||||||||||||POINT(19.9284857 39.6231211)
N1993275338|Cafe Emilys|FOOD|CAFE|19.7933167|39.7180636||||||||||||||||||POINT(19.7933167 39.7180636)
N1993275339|Pantokrator|FOOD|CAFE|19.8723928|39.7479727||||||||||||||||||POINT(19.8723928 39.7479727)
N1993275352|Monastery of Ipsilos Pantocrator|POW|CHRISTIAN|19.8723015|39.7483634||||||||||||||||||POINT(19.8723015 39.7483634)
N1993281190|Church of Analipsi|POW|CHRISTIAN|19.8225319|39.7023843||||||||||||||||||POINT(19.8225319 39.7023843)
N1993281191|Jason|ACCOMMODATION|HOTEL|19.8340225|39.6989136||||||||||||||||||POINT(19.8340225 39.6989136)
N1993281237|San Remo|ACCOMMODATION|HOTEL|19.8326716|39.6941063||||||||||||||||||POINT(19.8326716 39.6941063)
N1993281238|Zaharias|SHOP|SUPERMARKET|19.8242625|39.6958613||||||||||||||||||POINT(19.8242625 39.6958613)
N1993289441|Agios Nikola|POW|CHRISTIAN|19.8487933|39.566331||||||||||||||||||POINT(19.8487933 39.566331)
N1993289442|History & Folklore Museum of Messi|TOURIST|MUSEUM|19.8491143|39.5656929|Folkloric Museum|||||||||||||||||POINT(19.8491143 39.5656929)
N1993289443|Manelouzou|FOOD|RESTAURANT|19.8692167|39.5425921||||||||||||||||||POINT(19.8692167 39.5425921)
N1995759594|Σκάλομα|FOOD|CAFE|20.0951066|39.418243||||||||||||||||||POINT(20.0951066 39.418243)
N2009608935|Δημοτικό Ωδείο Λευκίμμης|EDUCATION|SCHOOL|20.0830281|39.4214436||||||||||||||||||POINT(20.0830281 39.4214436)
N2010893238|Άγιος Πέτρος|POI|HAMLET|20.0989193|39.4004486||||||||||||||||||POINT(20.0989193 39.4004486)
N2012681685|Quattro|FOOD|CAFE|20.0638943|39.4240563||||||||||||||||||POINT(20.0638943 39.4240563)
N2013525207|ΕΛΤΑ|AMENITY|POSTOFFICE|20.063084|39.422194||||||||+302662022355|+302662025025||http://www.elta.gr|||||||POINT(20.063084 39.422194)
N2013525750|Πειραιώς|MONEY|BANK|20.0728567|39.4233075|||||||||||http://www.atebank.gr|||||Πειραιώς||POINT(20.0728567 39.4233075)
N2013930014|Cafe 7 Bistro|FOOD|CAFE|20.0719398|39.4230726||||||||||||||||||POINT(20.0719398 39.4230726)
N2013930025|Standard|SHOP|COPYSHOP|20.0661243|39.4240806||||||||||||||||||POINT(20.0661243 39.4240806)
N2013930822|Φαρμακείο Κάντας Δημήτριος|HEALTH|PHARMACY|20.0575878|39.4213447||||||||+302662024714||||||||||POINT(20.0575878 39.4213447)
N2014441709|Φαρμακείο Σταματάκος Αλέξανδρος|HEALTH|PHARMACY|20.0774533|39.4215498||||||||+30 26620 22649||||||||||POINT(20.0774533 39.4215498)
N2015895208|Mersedes|FOOD|CAFE|20.0634772|39.4234175||||||||||||||||||POINT(20.0634772 39.4234175)
N2015895236|Μαρινόπουλος|SHOP|SUPERMARKET|20.0514876|39.4223325||||||||||||||||||POINT(20.0514876 39.4223325)
N2036518482|Sunrock|ACCOMMODATION|HOSTEL|19.8217177|39.5817622||||||||||||||||||POINT(19.8217177 39.5817622)
N2036518539|Πελεκας|TRANSPORT|BUSSTOP|19.8232198|39.588038||||||||||||||||||POINT(19.8232198 39.588038)
N2081390504|Φαρμακείο Βασίλειος Δημήτριος Βαρελής|HEALTH|PHARMACY|20.0474862|39.4209987||||||||+30 26620 24143||||||||||POINT(20.0474862 39.4209987)
N2081390643|5ο Δημοτικό Σχολείο Βιταλάδων|EDUCATION|SCHOOL|20.02439|39.4125663||||||||+30 26620 23600||||||||||POINT(20.02439 39.4125663)
N2100621337|Albatros|FOOD|CAFE|20.0668027|39.3896803||||||||||||||||||POINT(20.0668027 39.3896803)
N2100621338|Μπαστάτικα|POI|HAMLET|20.0711761|39.3931834||||||||||||||||||POINT(20.0711761 39.3931834)
N2100621339|Το Κουτούκι|FOOD|CAFE|20.0671181|39.3902931||||||||||||||||||POINT(20.0671181 39.3902931)
N2100621340|Φαρμακείο Νικόλαος Α. Κουρής|HEALTH|PHARMACY|20.0702244|39.3930197||||||||+30 26620 24900||||||||||POINT(20.0702244 39.3930197)
N2100621341|Το Πέρασμα|FOOD|CAFE|20.0706708|39.3931244||||||||||||||||||POINT(20.0706708 39.3931244)
N2100621485|4ο Δημοτικό Σχολείο Λευκίμμης|EDUCATION|SCHOOL|20.066492|39.3978529||||||||+30 26620 23442||||||||||POINT(20.066492 39.3978529)
N2102266865|Taverna Kouloura|FOOD|RESTAURANT|19.9403382|39.7441729||||||||||||||||||POINT(19.9403382 39.7441729)
N2104589092|Ι.Ν. Αγίου Δονάτου|POW|CHRISTIAN|20.0358817|39.4006247||||||||||||||||||POINT(20.0358817 39.4006247)
N2111969806|Οπτικά Μάστορας Χρήστος|SHOP|DEPARTMENTSTORE|20.0726357|39.4232378||||||||+30 26620 25252||||||||||POINT(20.0726357 39.4232378)
N2126389821|1ο & 5ο Γυμνάσιο|EDUCATION|SCHOOL|19.920359|39.6204435||||||||||||||||||POINT(19.920359 39.6204435)
N2166358355|Angelos Bar|FOOD|BAR|19.9205358|39.7889298|||||49081||||||http://www.angelosbar.com|||||||POINT(19.9205358 39.7889298)
N2166358420|Kassiopi primary school|EDUCATION|SCHOOL|19.9205573|39.7893729||||||||||||||||||POINT(19.9205573 39.7893729)
N2166359023|Φρούριο Κασσιώπης|TOURIST|CASTLE2|19.9204722|39.7917187|||||||||||||Byzantine castle later fortified by the Venetians.|||||POINT(19.9204722 39.7917187)
N2281099547|jennys studios|ACCOMMODATION|HOTEL|19.8530231|39.5471497||||||||||||||||||POINT(19.8530231 39.5471497)
N2281101026|pool jennys|SPORT|SWIMMING|19.8530607|39.5470877||||||||||||||||||POINT(19.8530607 39.5470877)
N2287028665|Alonaki Bay View|FOOD|RESTAURANT|19.869874|39.457065||||||||||||||||||POINT(19.869874 39.457065)
N2287030535|Alonaki Bay|SPORT|SWIMMING|19.8703091|39.4566249||||||||||||||||||POINT(19.8703091 39.4566249)
N2287079704|Angela Rest|FOOD|RESTAURANT|19.8481352|39.5344697||||||||||||||||||POINT(19.8481352 39.5344697)
N2288402193|Prasoudi|FOOD|RESTAURANT|19.8604866|39.4788662||||||||||||||||||POINT(19.8604866 39.4788662)
N2288404053|Prasoudi beach|SPORT|SWIMMING|19.8603793|39.4783362||||||||||||||||||POINT(19.8603793 39.4783362)
N2288406357|Coop|SHOP|SUPERMARKET|19.8731305|39.4942508||||||||||||||||||POINT(19.8731305 39.4942508)
N2292336725|Bakery|SHOP|BAKERY|19.8708419|39.496667||||||||||||||||||POINT(19.8708419 39.496667)
N2292342973|Mini Market|SHOP|CONVENIENCE|19.8870349|39.5667194||||||||||||||||||POINT(19.8870349 39.5667194)
N2292342983|Police|AMENITY|POLICE|19.9122606|39.5472802||||||||||||||||||POINT(19.9122606 39.5472802)
N2292347136|Pharmacy|HEALTH|PHARMACY|19.9124193|39.5474874||||||||||||||||||POINT(19.9124193 39.5474874)
N2292348017|Local Ouside|FOOD|RESTAURANT|19.9238734|39.518199||||||||||||||||||POINT(19.9238734 39.518199)
N2292364631|Beach Bar|FOOD|BAR|19.9140887|39.5802928||||||||||||||||||POINT(19.9140887 39.5802928)
N2292364799|Oasis Hotel|ACCOMMODATION|HOTEL|19.9135416|39.5802886||||||||||||||||||POINT(19.9135416 39.5802886)
N2292370424|Auto Union Rental|TRANSPORT|RENTALCAR|19.9136746|39.611937||||||||||||||||||POINT(19.9136746 39.611937)
N2292397237|Lamb Restaurant|FOOD|RESTAURANT|19.8874336|39.4689894||||||||||||||||||POINT(19.8874336 39.4689894)
N2292401718|Inside and Terrace|FOOD|RESTAURANT|19.9800115|39.459769||||||||||||||||||POINT(19.9800115 39.459769)
N2296357842|Beach Bar|FOOD|RESTAURANT|19.9246019|39.6208336||||||||||||||||||POINT(19.9246019 39.6208336)
N2296362364|Beach|SPORT|SWIMMING|19.9246143|39.6207956||||||||||||||||||POINT(19.9246143 39.6207956)
N2296363685|Faliraki|FOOD|RESTAURANT|19.9251858|39.6270758||||||||||||||||||POINT(19.9251858 39.6270758)
N2297971111|Internet Cafe|FOOD|CAFE|19.8806358|39.4913518||||||||||||||||||POINT(19.8806358 39.4913518)
N2297992797|Beach|SPORT|SWIMMING|20.0052566|39.4465858||||||||||||||||||POINT(20.0052566 39.4465858)
N2297992803|Panorama|FOOD|RESTAURANT|20.0049937|39.4468178||||||||||||||||||POINT(20.0049937 39.4468178)
N2321983907|Dimakos|FOOD|RESTAURANT|19.8841204|39.7978517||||||||||||||||||POINT(19.8841204 39.7978517)
N2361670460|YummuYummu|FOOD|RESTAURANT|19.8390885|39.6583249||||||||||||||||||POINT(19.8390885 39.6583249)
N2361710145|Jetoil|TRANSPORT|FUEL|19.8406549|39.6549156||||||||||||||||||POINT(19.8406549 39.6549156)
N2398423455|Δημοτικό &  Γυμνάσιο Αχαράβης|EDUCATION|SCHOOL|19.8211571|39.7928486||||||||||||||||||POINT(19.8211571 39.7928486)
N2410034327|Wave Bar|FOOD|BAR|19.9852892|39.4138489||||||||||||||||||POINT(19.9852892 39.4138489)
N2415169891|Taverna|FOOD|RESTAURANT|19.7816583|39.7950806||||||||||||||||||POINT(19.7816583 39.7950806)
N2415180644|Mitsis Roda Beach|ACCOMMODATION|HOTEL|19.7788153|39.7960528||||||||||||||||||POINT(19.7788153 39.7960528)
N2420705720|Γερμανός|SHOP|PHONE|20.0709474|39.4108214|||||||||||http://www.e-germanos.gr|||||||POINT(20.0709474 39.4108214)
N2420705721|Rise|FOOD|BAR|20.0645419|39.3792784||||||||+30 6980007270|||http://www.risecorfu.gr|||||||POINT(20.0645419 39.3792784)
N2420705722|thalassea|FOOD|BAR|20.0684024|39.3749297|||||||||||http://www.thalassea-corfu.gr|||||||POINT(20.0684024 39.3749297)
N2429791307|Enjoy|FOOD|BAR|19.9248093|39.4840343||||||||||||||||||POINT(19.9248093 39.4840343)
N2457650972|Center Market|SHOP|SUPERMARKET|19.9993511|39.4532631||||||||||||||||||POINT(19.9993511 39.4532631)
N2508589865|Vitamins|FOOD|RESTAURANT|19.9033911|39.7273696||||||||||||||||||POINT(19.9033911 39.7273696)
N2509390651|The Rocks|FOOD|RESTAURANT|19.9134322|39.7280466||||||||||||||||||POINT(19.9134322 39.7280466)
N2509394542|The Olive Press|FOOD|RESTAURANT|19.8961493|39.7240592||||||||||||||||||POINT(19.8961493 39.7240592)
N2509394543|Eleni|FOOD|RESTAURANT|19.8966646|39.7241009|||||||||||http://www.tavernaeleni.com|||||||POINT(19.8966646 39.7241009)
N252947195|Ρόδα|POI|VILLAGE|19.7891967|39.788989|||||49081|||||||||||||POINT(19.7891967 39.788989)
N252947525|Αχαράβη|POI|VILLAGE|19.8193811|39.7930721|||||49100|||||||||||||POINT(19.8193811 39.7930721)
N252947832|Σιδάρι|POI|VILLAGE|19.7017291|39.792821|||||49081|||||||||||||POINT(19.7017291 39.792821)
N2679042663|Alpha Bank|MONEY|BANK|19.918626|39.6218206||||||||||||||||||POINT(19.918626 39.6218206)
N2679042667|Alpha Bank|MONEY|BANK|19.9208566|39.6234732||||||||||||||||||POINT(19.9208566 39.6234732)
N2679074117|Dimitra|SHOP|SUPERMARKET|19.8861807|39.6299164|||||||||||http://www.dimitramarkets.gr/|||||||POINT(19.8861807 39.6299164)
N2679074118|LIDL|SHOP|SUPERMARKET|19.8840917|39.6304268|||||||||||http://www.lidl-hellas.gr|||||LIDL||POINT(19.8840917 39.6304268)
N2681839931|Avin|TRANSPORT|FUEL|19.8162008|39.6726885||||||||||||||||||POINT(19.8162008 39.6726885)
N2682062774|Mhtropoliti Methodiou -Terminal|TRANSPORT|BUSSTOP|19.9171307|39.6203043|||||||||||http://www.astikoktelkerkyras.gr/itineraries-weg-40407.html|||||Corfu City Bus||POINT(19.9171307 39.6203043)
N26860005|Karda Beach|ACCOMMODATION|CAMPING|19.8382563|39.685591||||||||||||||||||POINT(19.8382563 39.685591)
N26860067|Camping Paleokastritsa|ACCOMMODATION|CAMPING|19.7252673|39.6768986|||||49083|Paleokastritsa|||||http://www.campingpaleokastritsa.com/||Campsite under trees with toilets, showers, ATM, shop.|||Aris S.A.||POINT(19.7252673 39.6768986)
N26860090|Roda Beach|ACCOMMODATION|CAMPING|19.7847256|39.7844436||||||||||||||||||POINT(19.7847256 39.7844436)
N26864185|Παντοκράτωρ|POI|PEAK|19.8726797|39.7483849||||||||||||||||||POINT(19.8726797 39.7483849)
N2714683661|Erikousa|ACCOMMODATION|HOTEL|19.5807849|39.8803641|||||||||||www.hotelerikousa.gr|||||||POINT(19.5807849 39.8803641)
N2722814236|Robolla Beach|FOOD|RESTAURANT|19.7515686|39.7978683||||||Roda, Korfu||||||||||||POINT(19.7515686 39.7978683)
N2794296453|Στάση Πλατυτέρα|TRANSPORT|BUSSTOP|19.9105355|39.6221581||||||||||||||||||POINT(19.9105355 39.6221581)
N2794364240|Στάση Goublino Park Hotel|TRANSPORT|BUSSTOP|19.8390931|39.6575131||||||||||||||||||POINT(19.8390931 39.6575131)
N2794395512|Πολικλινική|TRANSPORT|BUSSTOP|19.9068461|39.6213649||||||||||||||||||POINT(19.9068461 39.6213649)
N2794542541|Στάση Λ. αλεξανδρας|TRANSPORT|BUSSTOP|19.9201061|39.6182931||||||||||||||||||POINT(19.9201061 39.6182931)
N2794594348|Στάση Στρατιά|TRANSPORT|BUSSTOP|19.9211749|39.6059633||||||||||||||||||POINT(19.9211749 39.6059633)
N2794600664|Στάση|TRANSPORT|BUSSTOP|19.918235|39.5965318||||||||||||||||||POINT(19.918235 39.5965318)
N2794611455|Στάση|TRANSPORT|BUSSTOP|19.9208546|39.5974255||||||||||||||||||POINT(19.9208546 39.5974255)
N2794631698|Στάση Λ. αλεξανδρας|TRANSPORT|BUSSTOP|19.9201711|39.6183246||||||||||||||||||POINT(19.9201711 39.6183246)
N2808563736|Στάση Τει|TRANSPORT|BUSSTOP|19.9157694|39.6230552||||||||||||||||||POINT(19.9157694 39.6230552)
N2829489023|The land of corfu|SHOP|GIFT|19.9233421|39.6248609||||||||||||||||||POINT(19.9233421 39.6248609)
N2833302239|Villa Tasos|ACCOMMODATION|HOTEL|19.8187978|39.7963308||||||||||||||||||POINT(19.8187978 39.7963308)
N2833389252|Agia Paraskevi Church|POW|UNKOWN|19.8541401|39.5711996||||||||||||||||||POINT(19.8541401 39.5711996)
N2833466909|Church|POW|CHRISTIAN|19.8710024|39.494731||||||||||||||||||POINT(19.8710024 39.494731)
N2835288619|Tavern Aristo|FOOD|RESTAURANT|20.0140985|39.4353398||||||||||||||||||POINT(20.0140985 39.4353398)
N2849022167|Bella Vista Beach Hotel|ACCOMMODATION|HOTEL|19.9135264|39.5417563|||||49084|Corfu, Benitses, Greece||||||||||||POINT(19.9135264 39.5417563)
N2849119421|Αργυράδες|POI|VILLAGE|19.9772621|39.4353354||||||||||||||||||POINT(19.9772621 39.4353354)
N286718486|Corfu Garden Village|ACCOMMODATION|HOTEL|19.8052366|39.7928583||||||||||||||||||POINT(19.8052366 39.7928583)
N286718487|Roda Garden Village|ACCOMMODATION|HOTEL|19.800311|39.7911002||||||||||||||||||POINT(19.800311 39.7911002)
N2892769314|Sebastian's|FOOD|RESTAURANT|19.8531529|39.5469869||||||||||||||||||POINT(19.8531529 39.5469869)
N2892769315|Dina's Paradise|ACCOMMODATION|HOTEL|19.8537593|39.5444202||||||||||||||||||POINT(19.8537593 39.5444202)
N2893085066|Aquis Agios Gordios Beach Hotel|ACCOMMODATION|HOTEL|19.851232|39.5422919||||||||||||||||||POINT(19.851232 39.5422919)
N290359074|Ερμονες|TOURIST|BEACH|19.7777986|39.6105115||||||||||||||||||POINT(19.7777986 39.6105115)
N2913409833|Galini Beach Studios|ACCOMMODATION|HOTEL|19.9364458|39.4729693|||||||||||http://www.galinibeachstudios.com/|||||||POINT(19.9364458 39.4729693)
N2913509304|Athina Apartments|ACCOMMODATION|HOTEL|19.9367582|39.471666||||||||+30-69326-60460|+30-26610-75284|info@athina-apartments.com|http://www.athina-apartments.com/|||||||POINT(19.9367582 39.471666)
N2913509305|Ionian Eye Design Studios|ACCOMMODATION|HOTEL|19.937198|39.4713817||||||||+30-6945-265048||sales@ionianeye.com|http://ionianeye.com/|||||||POINT(19.937198 39.4713817)
N2914113545|Dinos Green Place|ACCOMMODATION|HOTEL|19.9364348|39.472498||||||||+30-26610-80659||spirospalik@gmail.com|http://www.dinosgreenplace.com/|||||||POINT(19.9364348 39.472498)
N2914113546|Vasso Studio|ACCOMMODATION|HOTEL|19.9355359|39.4746058|||||||||||http://www.dinosgreenplace.com/vasso-studio.html|||||||POINT(19.9355359 39.4746058)
N2914235250|Anna's Garden|FOOD|RESTAURANT|19.9342774|39.4754431||||||||||||||||||POINT(19.9342774 39.4754431)
N2914235251|Plays|FOOD|FASTFOOD|19.9347986|39.4751061||||||||||||||||||POINT(19.9347986 39.4751061)
N2914235252|The Stars|FOOD|RESTAURANT|19.9346895|39.4753551||||||||||||||||||POINT(19.9346895 39.4753551)
N2914235420|Despina|SHOP|BAKERY|19.9342804|39.4757999||||||||||||||||||POINT(19.9342804 39.4757999)
N2914235423|General Market|SHOP|SUPERMARKET|19.9340647|39.4760153||||||||||||||||||POINT(19.9340647 39.4760153)
N2914235540|3K's|SHOP|SUPERMARKET|19.9343387|39.4755515||||||||||||||||||POINT(19.9343387 39.4755515)
N2914267527|Oasis|FOOD|BAR|19.9334869|39.4780791||||||||||||||||||POINT(19.9334869 39.4780791)
N2914353359|The Tastes|FOOD|RESTAURANT|19.9313556|39.4758014||||||||||||||||||POINT(19.9313556 39.4758014)
N2914410838|Alto Car Hire|TRANSPORT|RENTALCAR|19.9296544|39.4760654||||||||||||||||||POINT(19.9296544 39.4760654)
N2914410839|Millenium|TRANSPORT|RENTALCAR|19.9280924|39.4775435||||||||||||||||||POINT(19.9280924 39.4775435)
N2914410840|Oscar|TRANSPORT|RENTALCAR|19.9293745|39.476352||||||||||||||||||POINT(19.9293745 39.476352)
N2914410841|Palla|FOOD|CAFE|19.9291016|39.4765432||||||||||||||||||POINT(19.9291016 39.4765432)
N2914410842|Yannis Motor Company|TRANSPORT|RENTALCAR|19.9288734|39.4766977||||||||||||||||||POINT(19.9288734 39.4766977)
N2914522611|Andrioti|SHOP|GIFT|19.9258816|39.4795138||||||||||||||||||POINT(19.9258816 39.4795138)
N2914522612|Dr. med. Balis. N.S.|HEALTH|DOCTORS|19.9266314|39.479432||||||||||||||||||POINT(19.9266314 39.479432)
N2914522613|Elena|SHOP|HAIRDRESSER|19.9280128|39.4776181||||||||||||||||||POINT(19.9280128 39.4776181)
N2914522614|EuroRent|TRANSPORT|RENTALCAR|19.9274154|39.4782206||||||||||||||||||POINT(19.9274154 39.4782206)
N2914522615|First|TRANSPORT|RENTALCAR|19.9256115|39.479741||||||||||||||||||POINT(19.9256115 39.479741)
N2914522616|InterEurope|TRANSPORT|RENTALCAR|19.9279494|39.4776807||||||||||||||||||POINT(19.9279494 39.4776807)
N2914522617|Joras|SHOP|SUPERMARKET|19.9278855|39.4783448||||||||||||||||||POINT(19.9278855 39.4783448)
N2914522618|La Nuit|FOOD|CAFE|19.9254592|39.4802745||||||||||||||||||POINT(19.9254592 39.4802745)
N2914522619|Leather Shop|SHOP|CLOTHES|19.9263074|39.4792234||||||||||||||||||POINT(19.9263074 39.4792234)
N2914522620|Maksim's|FOOD|CAFE|19.9264438|39.4795276||||||||||||||||||POINT(19.9264438 39.4795276)
N2914522621|Nyssos Olive Oil|SHOP|DEPARTMENTSTORE|19.9253842|39.4798564||||||||||||||||||POINT(19.9253842 39.4798564)
N2914522622|Primary Health Care|HEALTH|HOSPITAL|19.9259941|39.4793842||||||||+30-26610-76900||||||||||POINT(19.9259941 39.4793842)
N2914522623|Steki|FOOD|RESTAURANT|19.9253738|39.4803296||||||||||||||||||POINT(19.9253738 39.4803296)
N2914522624|The Excursion Center|SHOP|DEPARTMENTSTORE|19.9259062|39.4799395||||||||+30-26610-76768||||||||||POINT(19.9259062 39.4799395)
N2914522625|The Three Sisters|FOOD|RESTAURANT|19.9277596|39.4784193||||||||||||||||||POINT(19.9277596 39.4784193)
N2914522626|Vericoco|FOOD|FASTFOOD|19.9248748|39.4804574||||||||||||||||||POINT(19.9248748 39.4804574)
N2914523414|3,00 Euro Shop|SHOP|CONVENIENCE|19.9255437|39.479797||||||||||||||||||POINT(19.9255437 39.479797)
N2914616577|Minore Apartments|ACCOMMODATION|HOTEL|19.9335163|39.4747944||||||||+30-69724-44441|||http://www.minore-studios.com/|||||||POINT(19.9335163 39.4747944)
N2914616578|Minore Taverna|FOOD|RESTAURANT|19.9335499|39.4748699||||||||||||||||||POINT(19.9335499 39.4748699)
N2914634493|Evridiki Apartments|ACCOMMODATION|HOTEL|19.9354827|39.4724047|||||||||||http://www.seaside-apartments.net/|||||||POINT(19.9354827 39.4724047)
N2914634494|Seaside Studios|ACCOMMODATION|HOTEL|19.9352012|39.4754296|||||||||||http://www.seaside-apartments.net/|||||||POINT(19.9352012 39.4754296)
N2917243556|Billy's|FOOD|CAFE|19.9255204|39.4774993||||||||||||||||||POINT(19.9255204 39.4774993)
N2917243557|Sfinaki Bar|FOOD|BAR|19.9253587|39.4778898||||||||||||||||||POINT(19.9253587 39.4778898)
N2917496742|Angela|SHOP|FLORIST|19.9128951|39.4770641||||||||||||||||||POINT(19.9128951 39.4770641)
N2917496743|Venus|SHOP|CLOTHES|19.9149239|39.4773469||||||||||||||||||POINT(19.9149239 39.4773469)
N2917643335|Kentpo|SHOP|PET|19.9127731|39.4770805||||||||||||||||||POINT(19.9127731 39.4770805)
N2917643336|Rizos|SHOP|DIY|19.9116966|39.4756594||||||||||||||||||POINT(19.9116966 39.4756594)
N2917914581|Ergon Auto|SHOP|CARREPAIR|19.9115588|39.4708862||||||||||||||||||POINT(19.9115588 39.4708862)
N2918019885|Natasha|FOOD|BAR|19.9248345|39.4812411||||||||||||24/7||||||POINT(19.9248345 39.4812411)
N2918019886|Rani's|FOOD|CAFE|19.9245692|39.4810399||||||||||||||||||POINT(19.9245692 39.4810399)
N2918019887|Zorbas|FOOD|RESTAURANT|19.9250215|39.4811588||||||||||||||||||POINT(19.9250215 39.4811588)
N2919047129|The Pumphouse|FOOD|RESTAURANT|19.8163115|39.7919299||||||||||||||||||POINT(19.8163115 39.7919299)
N2919084238|Ilo-Ilo|FOOD|CAFE|19.8151035|39.7915214||||||||||||||||||POINT(19.8151035 39.7915214)
N2919084239|Οδυσσέας|FOOD|RESTAURANT|19.8157743|39.7919645||Odysseas||||||||||||||||POINT(19.8157743 39.7919645)
N2919196998|Fuego|FOOD|BAR|19.8108024|39.7952494||||||||||||||||||POINT(19.8108024 39.7952494)
N2919426990|Adonis|FOOD|CAFE|19.8133039|39.7909698||||||||||||||||||POINT(19.8133039 39.7909698)
N2919426991|Sun's Daughter|SHOP|SHOES|19.814692|39.7910085||||||||||||||||||POINT(19.814692 39.7910085)
N2919426992|Apagio|FOOD|RESTAURANT|19.8132211|39.7915713||||||||||||17:00+||||||POINT(19.8132211 39.7915713)
N2919426993|Dimitra Markets|SHOP|SUPERMARKET|19.8136976|39.7911289||||||||||||Mo-Su 08:00-22:00||||||POINT(19.8136976 39.7911289)
N2919426994|Fish market|SHOP|FISH|19.8135576|39.7907322||||||||||||Mo-Sa 08:00-16:00||||||POINT(19.8135576 39.7907322)
N2919426996|J & K|SHOP|CLOTHES|19.8139186|39.7908176||||||||||||||||||POINT(19.8139186 39.7908176)
N2919426998|Orpheus|FOOD|BAR|19.8144354|39.7912781||||||||||||||||||POINT(19.8144354 39.7912781)
N2919431827|Hovoli|FOOD|CAFE|19.8140606|39.7908805||||||||||||||||||POINT(19.8140606 39.7908805)
N2919535039|Car Styling|SHOP|CARREPAIR|19.8065888|39.7885847||||||||||||||||||POINT(19.8065888 39.7885847)
N2919535040|Corfumedica|HEALTH|DOCTORS|19.8128778|39.7905121||||||||||||24/7||||||POINT(19.8128778 39.7905121)
N2919535041|Da Gino|FOOD|RESTAURANT|19.8134101|39.7906792||||||||||||||||||POINT(19.8134101 39.7906792)
N2919535042|Filaraki|FOOD|RESTAURANT|19.8135232|39.7907702||||||||||||||||||POINT(19.8135232 39.7907702)
N2919535043|Frock|SHOP|CLOTHES|19.8128243|39.7908422||||||||||||||||||POINT(19.8128243 39.7908422)
N2919535045|Navigator|FOOD|RESTAURANT|19.8078689|39.7938594||||||||||||||||||POINT(19.8078689 39.7938594)
N2919535047|Sabotage On Prices|SHOP|CLOTHES|19.8111916|39.7901996||||||||||||||||||POINT(19.8111916 39.7901996)
N2919535131|Spiros|SHOP|CONVENIENCE|19.80679|39.7886069||||||||||||||||||POINT(19.80679 39.7886069)
N2919535321|Bakery Machimaris|SHOP|BAKERY|19.8132733|39.7905865||||||||||||||||||POINT(19.8132733 39.7905865)
N2919567364|Green Motion|TRANSPORT|RENTALCAR|19.8182956|39.7936972||||||||||||||||||POINT(19.8182956 39.7936972)
N2919567365|InterEurope|TRANSPORT|RENTALCAR|19.8183835|39.7937715||||||||||||||||||POINT(19.8183835 39.7937715)
N2923898498|Barden|FOOD|BAR|19.807403|39.7936376||||||||||||||||||POINT(19.807403 39.7936376)
N2923898499|Boutique G|SHOP|CONVENIENCE|19.8057015|39.7930096||||||||||||||||||POINT(19.8057015 39.7930096)
N2923898500|Kormoranos|FOOD|BAR|19.8076923|39.7937657||||||||||||||||||POINT(19.8076923 39.7937657)
N2923918201|Mini market|SHOP|CONVENIENCE|19.8074907|39.7937265||||||||||||||||||POINT(19.8074907 39.7937265)
N2923918202|Nefeli|FOOD|RESTAURANT|19.8072372|39.7935023||||||||||||||||||POINT(19.8072372 39.7935023)
N2923918422|12 Gods|FOOD|CAFE|19.805759|39.7930543||||||||||||||||||POINT(19.805759 39.7930543)
N2923918430|Gong|SHOP|CLOTHES|19.8060418|39.7931813||||||||||||||||||POINT(19.8060418 39.7931813)
N2923920970|Tutti frutti|SHOP|GREENGROCER|19.8173627|39.7919585||||||||||||||||||POINT(19.8173627 39.7919585)
N2924593639|Alex's|FOOD|RESTAURANT|19.8096006|39.7946031||||||||||||||||||POINT(19.8096006 39.7946031)
N2924906428|Beach Front Salvanos|ACCOMMODATION|HOTEL|19.8082525|39.7938846||||||||+30-26630-63289|+30-26630-63426|info@beachfrontsalvanos.com|http://www.beachfrontsalvanos.com/|||||||POINT(19.8082525 39.7938846)
N2925080119|Αφρός Ταβέρνα|FOOD|CAFE|19.8102132|39.7948966|||||49081|||2663063501||||||||||POINT(19.8102132 39.7948966)
N2925080120|Alex's Taverna|FOOD|RESTAURANT|19.8096667|39.7946612||||||||||||||||||POINT(19.8096667 39.7946612)
N2925080122|Elena Apartment|ACCOMMODATION|HOTEL|19.8059033|39.7903847||||||||+30-26630-64360||elena@corfusites.com|http://www.corfusites.com/Elena/|||||||POINT(19.8059033 39.7903847)
N2925080123|Faros|FOOD|RESTAURANT|19.8105472|39.7950322||||||||||||||||||POINT(19.8105472 39.7950322)
N2925080124|S-bikes|SHOP|BICYCLE|19.8068674|39.7886143||||||||||||||||||POINT(19.8068674 39.7886143)
N2925080125|Woody's|FOOD|RESTAURANT|19.8106652|39.7950466||||||||||||||||||POINT(19.8106652 39.7950466)
N2925167715|Almar|FOOD|CAFE|19.8175808|39.793219||||||||||||||||||POINT(19.8175808 39.793219)
N2925167716|Annabelle's|SHOP|GIFT|19.8143397|39.7912378||||||||||||||||||POINT(19.8143397 39.7912378)
N2925167717|Central|FOOD|RESTAURANT|19.8164396|39.7924308||||||||||||||||||POINT(19.8164396 39.7924308)
N2925167718|Corfu Spirit|SHOP|CONVENIENCE|19.8166019|39.7921479||||||||||||||||||POINT(19.8166019 39.7921479)
N2925167719|Cube|TOURIST|NIGHTCLUB|19.8168032|39.7927044||||||||||||||||||POINT(19.8168032 39.7927044)
N2925167720|Dive Easy|SHOP|DEPARTMENTSTORE|19.8136047|39.7907459||||||||+30-26630-29350|||http://www.divecorfu.com/|||||||POINT(19.8136047 39.7907459)
N2925167721|enterprise |TRANSPORT|RENTALCAR|19.816737|39.792626||||||Acharavi||||||||||||POINT(19.816737 39.792626)
N2925167722|Hertz|TRANSPORT|RENTALCAR|19.8174458|39.7931088||||||||||||08:30-13:00,18:00-20:00||||||POINT(19.8174458 39.7931088)
N2925167723|Internet cafe|FOOD|CAFE|19.8159391|39.7921699||||||||||||||||||POINT(19.8159391 39.7921699)
N2925167724|Ippocrates Apartments|ACCOMMODATION|HOTEL|19.8108222|39.7948718||||||||||||||||||POINT(19.8108222 39.7948718)
N2925167725|Istros|FOOD|CAFE|19.8144757|39.7910131||||||||||||||||||POINT(19.8144757 39.7910131)
N2925167726|Καζιάνης|SHOP|SUPERMARKET|19.815894|39.7915828||Kazianis||||||||||||||||POINT(19.815894 39.7915828)
N2925167727|Kostas|TRANSPORT|RENTALCAR|19.8165701|39.7921216|||||||||||||Moto for rent|||||POINT(19.8165701 39.7921216)
N2925167729|Mythos|FOOD|BAR|19.8173598|39.7930419||||||||||||||||||POINT(19.8173598 39.7930419)
N2925167730|Natura|SHOP|CONVENIENCE|19.8160282|39.7921397||||||||||||||||||POINT(19.8160282 39.7921397)
N2925167731|Oneipo|SHOP|GIFT|19.8147886|39.7913645||||||||||||10:00-14:00,17:00-21:00||||||POINT(19.8147886 39.7913645)
N2925167733|Pitta house|FOOD|FASTFOOD|19.818061|39.793507||||||Acharavi||||||||||||POINT(19.818061 39.793507)
N2925167736|Tet a Tet|FOOD|CAFE|19.8165794|39.7925231||||||||||||||||||POINT(19.8165794 39.7925231)
N2925167745|Star|SHOP|CLOTHES|19.8146683|39.791339||||||||||||||||||POINT(19.8146683 39.791339)
N2926269968|Angelos|FOOD|FASTFOOD|19.8156112|39.7914025||||||||||||||||||POINT(19.8156112 39.7914025)
N2926269970|Cheap shop|SHOP|CONVENIENCE|19.8178255|39.7929854||||||||||||||||||POINT(19.8178255 39.7929854)
N2926269971|Dala's|SHOP|JEWELRY|19.8142415|39.7909502||||||||||||||||||POINT(19.8142415 39.7909502)
N2926269972|Lollas|SHOP|TOBACCO|19.818026|39.7934823||||||||||||||||||POINT(19.818026 39.7934823)
N2926269973|Alfa Mini Market|SHOP|CONVENIENCE|19.8170192|39.7924269||||||||||||06:00-22:00||||||POINT(19.8170192 39.7924269)
N2926269974|Zoyzoynia|SHOP|TOYS|19.8179578|39.7931162||||||||||||||||||POINT(19.8179578 39.7931162)
N2926270610|Βιβλιοπολείο Διάπλαση|SHOP|BOOK|19.8179174|39.7930716||||||||||||||||||POINT(19.8179174 39.7930716)
N2926270614|Kafeneio|FOOD|CAFE|19.8182275|39.7932425|||||49081|Acharavi||||||||||||POINT(19.8182275 39.7932425)
N2928992358|Pink Palace|ACCOMMODATION|HOTEL|19.8529229|39.5491116||||||||||||||||||POINT(19.8529229 39.5491116)
N2932340176|Seafront Apartments|ACCOMMODATION|HOTEL|20.1075647|39.3911458|||Kavos Strip||49080|Kavos||+30 26620 61250|||http://www.seafrontapts.com|||||||POINT(20.1075647 39.3911458)
N2933240610|Hot Spot|FOOD|BAR|19.9220513|39.7896387||||||||||||||||||POINT(19.9220513 39.7896387)
N2933242380|Oassis|ACCOMMODATION|HOTEL|19.9211054|39.7901122||||||||||||||||||POINT(19.9211054 39.7901122)
N2934839096|Παλιές Σινιές|POI|HAMLET|19.8820245|39.7442621||Palies Sinies||||||||||||||||POINT(19.8820245 39.7442621)
N2935875595|Paramonas Hotel|ACCOMMODATION|HOTEL|19.8537438|39.5011748|||ParamonasBeach|1||Corfu||00302661076595||||||||Merianos S.A.||POINT(19.8537438 39.5011748)
N2951442195|Kalimera|FOOD|CAFE|19.8529341|39.5469665||||||||||||||||||POINT(19.8529341 39.5469665)
N2951442197|Robin's Nest|FOOD|BAR|19.8526165|39.5468167||||||||||||||||||POINT(19.8526165 39.5468167)
N2957016210|Anastasis Cafe|FOOD|CAFE|19.7099662|39.6812148||||||||||||||||||POINT(19.7099662 39.6812148)
N2957016211|Idea|FOOD|RESTAURANT|19.702716|39.672642||||||||(+30) 26630 41407||info@lanostraidea.com|http://www.lanostraidea.com|Jun-Aug||||||POINT(19.702716 39.672642)
N2959096185|Veranda|FOOD|RESTAURANT|19.6967558|39.6795255||||||||||||||||||POINT(19.6967558 39.6795255)
N2966504948|Athena|ACCOMMODATION|HOTEL|19.6812208|39.7171083||||||||||||||||||POINT(19.6812208 39.7171083)
N2975426641|Kostas Apartments|ACCOMMODATION|HOTEL|19.6838242|39.7172504||||||||||||||||||POINT(19.6838242 39.7172504)
N2976361627|Paraskevi Apartments|ACCOMMODATION|HOTEL|19.8282046|39.6965655|||Ipsos - Analipsi||49083|Corfu||+302661097992|||http://paraskeviapartments.wix.com/corfu|||||||POINT(19.8282046 39.6965655)
N2978302613|Church of Saint Gordios|POW|CHRISTIAN|19.8507201|39.545992||||||||||||||||||POINT(19.8507201 39.545992)
N299582667|Περίθεια|POI|VILLAGE|19.8703558|39.8016527|||||49100|||||||||||||POINT(19.8703558 39.8016527)
N2997569491|Anemos|FOOD|RESTAURANT|19.6592518|39.7213317||||||||||||||||||POINT(19.6592518 39.7213317)
N2997574717|Alkion|ACCOMMODATION|HOTEL|19.6813027|39.7165887||||||||||||||||||POINT(19.6813027 39.7165887)
N299823907|Κασσιόπη|POI|VILLAGE|19.9220526|39.7891062|Kassiopi|Kassiopi||||||||||||||||POINT(19.9220526 39.7891062)
N300074054|Παλιά Περίθεια|POI|HAMLET|19.8754719|39.7645526|||||49100|||||||||||||POINT(19.8754719 39.7645526)
N300076533|Άγιος Στέφανος|POI|VILLAGE|19.9475015|39.7667613|||||49100|||||||||||||POINT(19.9475015 39.7667613)
N3014136872|Hotel Marida|ACCOMMODATION|HOTEL|19.8481564|39.6162177||||||||||||||||||POINT(19.8481564 39.6162177)
N3014138113|Kidonakia|ACCOMMODATION|CHALET|19.8485928|39.6152425||||||||||||||||||POINT(19.8485928 39.6152425)
N3014148681|Kosta's Taverna|FOOD|RESTAURANT|19.848455|39.6157815||||||||||||||||||POINT(19.848455 39.6157815)
N3024174046|Markato|SHOP|SUPERMARKET|19.8933891|39.614462||||||||||||||||||POINT(19.8933891 39.614462)
N3025741774|TT Hellenic Postbank|MONEY|BANK|19.9166079|39.6225928|||Ιωάννου Θεοτόκη|||||||||Mo-Th 08:00-14:30; Fr 08:00-14:00; ||||||POINT(19.9166079 39.6225928)
N3025781846|Grill House|FOOD|FASTFOOD|19.8502964|39.5468753||||||||||||||||||POINT(19.8502964 39.5468753)
N3025781850|Alex's Super Market|SHOP|CONVENIENCE|19.8541282|39.5476178||||||||||||||||||POINT(19.8541282 39.5476178)
N3036651447|Taverna Oasis|FOOD|BAR|19.7250774|39.6759549||||||||||||||||||POINT(19.7250774 39.6759549)
N3040609533|Γλυφά|POI|HAMLET|19.8832331|39.7238343|||||49081|||||||||||||POINT(19.8832331 39.7238343)
N3040633388|Art Studios Benitses|ACCOMMODATION|HOTEL|19.9123412|39.5420521||||||||+30 6944555769, +30 6947374851|||http://benitses-artstudios.com/|||||||POINT(19.9123412 39.5420521)
N3040693813|Deseo|FOOD|CAFE|19.9187911|39.6215349||||||||||||||||||POINT(19.9187911 39.6215349)
N3048629930|Antigoni's Appartments|ACCOMMODATION|HOTEL|19.8144405|39.7945567||||||||||antigoni.apts@yahoo.gr|http://www.booking.com/hotel/gr/antigoni-s-apts.ru.html|||||||POINT(19.8144405 39.7945567)
N3048629931|Maistro|FOOD|RESTAURANT|19.8128277|39.7961314||||||||||||||||||POINT(19.8128277 39.7961314)
N3048667689|Loutses cave|POI|CAVE|19.8903421|39.7769871||||||||||||||||||POINT(19.8903421 39.7769871)
N3048673197|Serbian soldiers monument|TOURIST|MEMORIAL|19.8965869|39.4761841||||||||||||||||||POINT(19.8965869 39.4761841)
N3049955940|Vistonia|ACCOMMODATION|HOTEL|19.6777079|39.7189682|||||||||||http://www.vistonia-korfu.de|||||||POINT(19.6777079 39.7189682)
N3084727735|Oceano|FOOD|RESTAURANT|19.9423407|39.4276953||||||||||||||||||POINT(19.9423407 39.4276953)
N3084728935|Shopping Centre|SHOP|SUPERMARKET|19.9432557|39.4275151||||||||||||||||||POINT(19.9432557 39.4275151)
N3086263233|Almyra|FOOD|BAR|19.9425657|39.4274776||||||||||||||||||POINT(19.9425657 39.4274776)
N308802019|Μνημείο Μενεκράτους / Menecrates Tomb|TOURIST|MEMORIAL|19.9192455|39.6168026||||||||||||||||||POINT(19.9192455 39.6168026)
N3089697687|Electra's garden|FOOD|RESTAURANT|20.0047463|39.4473057||||||||||||||||||POINT(20.0047463 39.4473057)
N3089709665|Cheeky Face|FOOD|RESTAURANT|20.0785827|39.4210612||||||||||||||||||POINT(20.0785827 39.4210612)
N3089720645|Maltas beach|TOURIST|BEACH|19.993137|39.4080725||||||||||||||||||POINT(19.993137 39.4080725)
N3089722289|Σκλαβενίτης|SHOP|SUPERMARKET|19.8953295|39.6063914||||||||||||||||||POINT(19.8953295 39.6063914)
N3089722290|Jumbo|SHOP|TOYS|19.8938541|39.6059045||||||||||||||||||POINT(19.8938541 39.6059045)
N3097520754|Coffeeway|FOOD|CAFE|19.9199343|39.6227876||||||||2661042162||||||||||POINT(19.9199343 39.6227876)
N3097524399|Earth cafe|FOOD|CAFE|19.9207782|39.6232606||||||||||||||||||POINT(19.9207782 39.6232606)
N3097533632|artissimo|SHOP|BAKERY|19.9219729|39.6243419||||||||||||||||||POINT(19.9219729 39.6243419)
N3097541312|Land of Corfu|SHOP|SUPERMARKET|19.9220304|39.625195||||||||||||||||||POINT(19.9220304 39.625195)
N3100637336|Jimys Shop|SHOP|GIFT|19.6978792|39.6792782||||||||||||||||||POINT(19.6978792 39.6792782)
N3100647197|Alex|FOOD|RESTAURANT|19.9451931|39.4262042||||||||||||||||||POINT(19.9451931 39.4262042)
N3100647198|Evergreen|FOOD|RESTAURANT|19.9448678|39.4260984||||||||||||24/7||||||POINT(19.9448678 39.4260984)
N3100647200|San Carlos|FOOD|RESTAURANT|19.941988|39.4279239||||||||||||||||||POINT(19.941988 39.4279239)
N3106503733|Bellissimo|FOOD|RESTAURANT|19.920924|39.6252104||||||||||||||||||POINT(19.920924 39.6252104)
N3106693751|British Surgery|HEALTH|DOCTORS|19.8382292|39.6799376||||||||||||||||||POINT(19.8382292 39.6799376)
N3106693752|Palma Boutique Hotel|ACCOMMODATION|HOTEL|19.8377732|39.6807923||||||||||||||||||POINT(19.8377732 39.6807923)
N3107990456|O Mylos|FOOD|RESTAURANT|19.849894|39.6640774||||||||||||||||||POINT(19.849894 39.6640774)
N3109668258|Marilena|ACCOMMODATION|HOTEL|19.8428382|39.7089385||||||||||||||||||POINT(19.8428382 39.7089385)
N3109698391|Palegro|FOOD|RESTAURANT|19.8528735|39.6641205||||||||||||||||||POINT(19.8528735 39.6641205)
N3140536416|Ka.Ni.Le|SHOP|BAKERY|19.8682189|39.7191185||||||||||||||||||POINT(19.8682189 39.7191185)
N3140536417|Melina Bay Boutique Hotel|ACCOMMODATION|HOTEL|19.9218762|39.7907833||||||||||||||||||POINT(19.9218762 39.7907833)
N3140536418|Odyseus|ACCOMMODATION|HOTEL|19.7070558|39.6749181||||||||||||||||||POINT(19.7070558 39.6749181)
N3140544765|Natasa Kourtelesi|HEALTH|PHARMACY|19.7388508|39.6828942||||||||||||||||||POINT(19.7388508 39.6828942)
N3140544784|Nicholas|SHOP|SUPERMARKET|19.8650852|39.7165357||||||||||||||||||POINT(19.8650852 39.7165357)
N3140544907|Virginia's Place|FOOD|RESTAURANT|19.9236822|39.790451||||||||||||||||||POINT(19.9236822 39.790451)
N3140544908|Yannis|SHOP|SUPERMARKET|19.8686789|39.7190223||||||||||||||||||POINT(19.8686789 39.7190223)
N3140544909|xenia|FOOD|RESTAURANT|19.7035081|39.672459||||101||||||||||||||POINT(19.7035081 39.672459)
N3140544910|Δήμητρα Μάρκετ|SHOP|SUPERMARKET|19.9205603|39.7890647||||||||||||||||||POINT(19.9205603 39.7890647)
N3140567695|AB Supermarket|SHOP|SUPERMARKET|19.9015036|39.621695||||||||||||||||||POINT(19.9015036 39.621695)
N3140567696|Corfu Auto Center|SHOP|CAR|19.8461969|39.647733||||||||||||||||||POINT(19.8461969 39.647733)
N3140567697|Dimitra|SHOP|SUPERMARKET|19.90464|39.6209632||||||||||||||||||POINT(19.90464 39.6209632)
N3140567698|Hertz|TRANSPORT|RENTALCAR|19.911901|39.6127247||||||||||||||||||POINT(19.911901 39.6127247)
N3140567699|Jetoil|TRANSPORT|FUEL|19.8849067|39.6306797||||||||||||||||||POINT(19.8849067 39.6306797)
N3140567700|Louis Kerkyra Golf Hotel|ACCOMMODATION|HOTEL|19.8856037|39.6346641||||||||||||||||||POINT(19.8856037 39.6346641)
N3155137425|Bella Mare|ACCOMMODATION|HOTEL|19.9370076|39.7792352|||||||||||http://www.belmare.gr/hotel-location.asp|||||||POINT(19.9370076 39.7792352)
N3179510716|Πολύτεχνο|FOOD|BAR|19.9178656|39.6244244||||||||||||||||||POINT(19.9178656 39.6244244)
N3179510717|Τράπεζα Πειραιώς|MONEY|BANK|19.9040909|39.6212703||||||||||||||||||POINT(19.9040909 39.6212703)
N3181729693|Lunatico|FOOD|CAFE|19.9156503|39.6212064||||||||||||||||||POINT(19.9156503 39.6212064)
N320609243|Μπουράτικα|POI|HAMLET|19.910572|39.7281915||Bouratika||||||||||||||||POINT(19.910572 39.7281915)
N3232233879|BP|TRANSPORT|FUEL|19.89291|39.5910835||||||||||||||||||POINT(19.89291 39.5910835)
N3288633032|Μοναστήρι Παναγίας|TOURIST|RUINS|20.1071817|39.3642724||||||||||||||||||POINT(20.1071817 39.3642724)
N336225233|Μπαρμπάτι|POI|VILLAGE|19.869265|39.718521||Barbati|||49100|||||||||||||POINT(19.869265 39.718521)
N336237285|Αγραφοί|POI|VILLAGE|19.7430469|39.7666411|||||49081|||||||||||||POINT(19.7430469 39.7666411)
N336243434|Επίσκεψη|POI|VILLAGE|19.8173181|39.7592688|||||49100|||||||||||||POINT(19.8173181 39.7592688)
N336243436|Σπαρτύλας|POI|VILLAGE|19.8417707|39.7209575|||||49100|||||||||||||POINT(19.8417707 39.7209575)
N336246111|Corfa Palma Beach|POI|VILLAGE|19.837897|39.6800271||||||||||||||||||POINT(19.837897 39.6800271)
N336246112|AB Food|SHOP|SUPERMARKET|19.8411269|39.7030661||||||||||||||||||POINT(19.8411269 39.7030661)
N336333401|Gas|TRANSPORT|FUEL|19.8456431|39.7083133||||||||||||||||EKO||POINT(19.8456431 39.7083133)
N336334659|Πυργί|POI|HAMLET|19.8439553|39.7084756||Pyrgi|||49083|||||||||||||POINT(19.8439553 39.7084756)
N336335393|Σωκράκι|POI|VILLAGE|19.7930901|39.7176844|||||49083|||||||||||||POINT(19.7930901 39.7176844)
N336335997|Άνω Κορακιάνα|POI|VILLAGE|19.7941806|39.7064184|||||49083|||||||||||||POINT(19.7941806 39.7064184)
N336341038|Παλαιό Φρούριο|TOURIST|CASTLE2|19.9280176|39.6234241||Palaio Frourio|||||||||||||||el.wikipedia.org/wiki/Παλαιό Φρούριο (Κέρκυρα)|POINT(19.9280176 39.6234241)
N336356525|Γλυφάδα|POI|VILLAGE|19.8076974|39.5932485|||||49100|||||||||||||POINT(19.8076974 39.5932485)
N336358284|Πέλεκας|POI|VILLAGE|19.8224957|39.5924944|||||49100|||||||||||||POINT(19.8224957 39.5924944)
N336375934|Γουβιά|POI|VILLAGE|19.8443096|39.6517343||Gouvia|||49100|||||||||||||POINT(19.8443096 39.6517343)
N3377712314|Μονολίθι|FOOD|RESTAURANT|19.8333461|39.7884258||Monolithi||||||||||||||||POINT(19.8333461 39.7884258)
N3442982733|Agioi Pateres|POW|CHRISTIAN|19.9206639|39.624397||||||||||||||||||POINT(19.9206639 39.624397)
N3455798795|Αγία Σοφία|POW|CHRISTIAN|19.9200604|39.6232215||||||||||||||||||POINT(19.9200604 39.6232215)
N3455798806|Εβραϊκή Συναγωγή|POW|JEWISH|19.9192052|39.6241145||||||||||||||||||POINT(19.9192052 39.6241145)
N3457413555|Παναγία Αγγέλων|POW|CHRISTIAN|19.9184136|39.6246226||||||||||||||||||POINT(19.9184136 39.6246226)
N3457413557|Παναγία Αγγέλων|POW|CHRISTIAN|19.9183393|39.624579||||||||||||||||||POINT(19.9183393 39.624579)
N3495616738|Royal boutique|ACCOMMODATION|HOTEL|19.9174852|39.5924258||||||||||||||||||POINT(19.9174852 39.5924258)
N3495616743|DIVANI HOTEL|ACCOMMODATION|HOTEL|19.9223865|39.5985229||||||||||||||||||POINT(19.9223865 39.5985229)
N3495616745|Ariti Hotel|ACCOMMODATION|HOTEL|19.9186019|39.5932029||||||||+30 2661 033885|||http://aritihotel.com/|||||||POINT(19.9186019 39.5932029)
N3495619549|Hellinis|ACCOMMODATION|HOTEL|19.916998|39.593885||||||||||||||||||POINT(19.916998 39.593885)
N3495622952|FLISVOS RESTAURANT|FOOD|RESTAURANT|19.9178804|39.5907722||||||||||||||||||POINT(19.9178804 39.5907722)
N3495626618|NAUTILOS|FOOD|RESTAURANT|19.927708|39.6108167||||||||||||||||||POINT(19.927708 39.6108167)
N3495628232|ANEMOMYLOS|FOOD|RESTAURANT|19.9279628|39.6103311||||||||||||||||||POINT(19.9279628 39.6103311)
N3521972220|Siorra Vittoria Boutique Hotel|ACCOMMODATION|HOTEL|19.9213924|39.6226132||||||||+30 26610 36300|||http://www.siorravittoria.com/|||||||POINT(19.9213924 39.6226132)
N3522001021|Ναός Υπαπαντής|POW|CHRISTIAN|19.920922|39.6268837||||||||||||||||||POINT(19.920922 39.6268837)
N3522001026|Μητροπολιτικός Ναός Υ.Θ. Σπηλιωτίσσης|POW|CHRISTIAN|19.9212047|39.625893||||||||||||||||||POINT(19.9212047 39.625893)
N3524194793|Arias Bay|TOURIST|BEACH|19.9489638|39.7800346||||||||||||||||||POINT(19.9489638 39.7800346)
N3546998298|Captain George|FOOD|RESTAURANT|19.9177714|39.5925094|||Nafsikas|41||Κανονι||+30 694 820 8208||mitropouloua@yahoo.com||Mo-Su 12:00-24:00||||||POINT(19.9177714 39.5925094)
N3547466261|Αγ. Νικόλαος|POW|CHRISTIAN|19.9224694|39.6257247||||||||||||||||||POINT(19.9224694 39.6257247)
N3558575711|Albatros|ACCOMMODATION|HOTEL|19.9291274|39.4830269||||||||||||||||||POINT(19.9291274 39.4830269)
N3558575712|Golden Beach Bar|FOOD|BAR|19.9304455|39.4828357||||||||||||||||||POINT(19.9304455 39.4828357)
N3558576086|Sea Bird|ACCOMMODATION|HOTEL|19.9284525|39.4826302||||||||||||||||||POINT(19.9284525 39.4826302)
N3558576087|Three Stars Village|ACCOMMODATION|HOTEL|19.930563|39.4822846||||||||||||||||||POINT(19.930563 39.4822846)
N3562792761|Yaliskari|FOOD|RESTAURANT|19.8259723|39.5772842||||||||||||||||||POINT(19.8259723 39.5772842)
N3566360354|naftis|FOOD|RESTAURANT|19.8205298|39.5840751||||||||||||||||||POINT(19.8205298 39.5840751)
N3566360356|Pelekas Monastery Resort|FOOD|RESTAURANT|19.8216411|39.5826131||||||||||||||||||POINT(19.8216411 39.5826131)
N3571762693|Pelekas Grill|FOOD|RESTAURANT|19.8215245|39.5917105||||||||||||||||||POINT(19.8215245 39.5917105)
N3572496598|Παναγία Αντιβουνιώτισσα|POW|CHRISTIAN|19.922502|39.6272346||||||||||||||||||POINT(19.922502 39.6272346)
N3581360949|Τράπεζα Ελλάδος|AMENITY|COURT|19.9223024|39.6228128||||||||||||||||||POINT(19.9223024 39.6228128)
N3581361398|REX|FOOD|RESTAURANT|19.9235876|39.6243295||||||||||||||||||POINT(19.9235876 39.6243295)
N3611402835|Marina Pool Bar|FOOD|FASTFOOD|19.8561519|39.547234||||||||||||||||||POINT(19.8561519 39.547234)
N3618335378|Filippas Restaurant|FOOD|RESTAURANT|19.8424324|39.6526055|||||||||||filippas.gr|||||||POINT(19.8424324 39.6526055)
N3620043894|Melodies|FOOD|PUB|19.8426341|39.6527763||||||||||||||||||POINT(19.8426341 39.6527763)
N3623221313|Whispers|TOURIST|NIGHTCLUB|19.8424994|39.6537827||||||||||||||||||POINT(19.8424994 39.6537827)
N3623221825|Wild Rose|FOOD|BAR|19.8422922|39.6545919||||||||||||||||||POINT(19.8422922 39.6545919)
N3623221827|Secret|TOURIST|NIGHTCLUB|19.8426175|39.6538794||||||||||||||||||POINT(19.8426175 39.6538794)
N3628239162|Leftis Romantica|ACCOMMODATION|HOTEL|19.9264205|39.4855932||||||||||||||||||POINT(19.9264205 39.4855932)
N3628239169|Delfinia|ACCOMMODATION|HOTEL|19.9277965|39.4861418||||||||||||||||||POINT(19.9277965 39.4861418)
N3634910015|Flower Villa's|ACCOMMODATION|HOTEL|19.9538664|39.4274451||||||||||||||||||POINT(19.9538664 39.4274451)
N3639581930|Loco|TOURIST|NIGHTCLUB|19.8416226|39.6537949||||||||||||||||||POINT(19.8416226 39.6537949)
N3641341202|Desperados|FOOD|BAR|19.842045|39.6534629||||||||||||||||||POINT(19.842045 39.6534629)
N3641343698|Tzoumerka Grill House|FOOD|RESTAURANT|19.8424567|39.6527817||||||||||||||||||POINT(19.8424567 39.6527817)
N3659905324|Chapel|POW|UNKOWN|19.7723394|39.6124972||||||||||||||||||POINT(19.7723394 39.6124972)
N3659975846|chapel Agios Symeon|POW|CHRISTIAN|19.7334806|39.6830774||||||||||||||||||POINT(19.7334806 39.6830774)
N3673955957|Bella Vista Taverna|FOOD|RESTAURANT|19.9230222|39.4856825||||||||||||||||||POINT(19.9230222 39.4856825)
N3673962187|Caldera Bar|FOOD|BAR|19.9295285|39.4839887||||||||||||||||||POINT(19.9295285 39.4839887)
N3673962188|Barocco Messogi|FOOD|BAR|19.9344158|39.4781811||||||||||||||||||POINT(19.9344158 39.4781811)
N3673962189|Alexakis Taverna|FOOD|RESTAURANT|19.929965|39.4833885||||||||||||||||||POINT(19.929965 39.4833885)
N3673962190|Christina|FOOD|RESTAURANT|19.9343745|39.4774619||||||||||||||||||POINT(19.9343745 39.4774619)
N3673994820|Buddies|FOOD|BAR|19.9247955|39.4844592||||||||||||||||||POINT(19.9247955 39.4844592)
N3673994821|Time Out|FOOD|BAR|19.9247084|39.4806255||||||||||||||||||POINT(19.9247084 39.4806255)
N3673994822|Planet Cafe|FOOD|BAR|19.9246286|39.4834667||||||||||||||||||POINT(19.9246286 39.4834667)
N3673994823|Stavros Taverna|FOOD|RESTAURANT|19.9247642|39.4825128||||||||||||||||||POINT(19.9247642 39.4825128)
N3674033956|Aragorn|ACCOMMODATION|HOTEL|19.9236853|39.48779||||||||||||||||||POINT(19.9236853 39.48779)
N3674033957|Three Stars Village|ACCOMMODATION|HOTEL|19.9263276|39.4910307||||||||||||||||||POINT(19.9263276 39.4910307)
N3674033958|Calimera Miramare Beach and Spa|ACCOMMODATION|HOTEL|19.9273137|39.4912139||||||||||||||||||POINT(19.9273137 39.4912139)
N3678027963|Zefyros Beach Bar|FOOD|BAR|19.9330396|39.4815944||||||||||||||||||POINT(19.9330396 39.4815944)
N3678027964|Levande Beach Bar|FOOD|BAR|19.9321558|39.481927||||||||||||||||||POINT(19.9321558 39.481927)
N3687696868|Taverna Margarita|FOOD|RESTAURANT|19.9296287|39.4838277||||||||||||||||||POINT(19.9296287 39.4838277)
N3688322361|Snack Bar Albatros|FOOD|BAR|19.9297496|39.4835356||||||||||||||||||POINT(19.9297496 39.4835356)
N3688322362|Alexakis|SHOP|CONVENIENCE|19.929821|39.483254||||||||||||||||||POINT(19.929821 39.483254)
N3688478497|Alkionis|FOOD|RESTAURANT|19.9251096|39.4845429||||||||||||||||||POINT(19.9251096 39.4845429)
N3688478498|Jimmys|FOOD|RESTAURANT|19.9252383|39.4848117||||||||||||||||||POINT(19.9252383 39.4848117)
N3688478499|Aquarius|SHOP|GIFT|19.9248554|39.4846538||||||||||||||||||POINT(19.9248554 39.4846538)
N3688489151|Sambas|TRANSPORT|RENTALCAR|19.9250422|39.4838545||||||||||||||||||POINT(19.9250422 39.4838545)
N3688489152|Mamma's Taverna|FOOD|RESTAURANT|19.9251433|39.4839826||||||||||||||||||POINT(19.9251433 39.4839826)
N3688489153|Souvenir Market|SHOP|GIFT|19.9248039|39.483919||||||||||||||||||POINT(19.9248039 39.483919)
N3688551585|Villa Corfiotica|ACCOMMODATION|HOTEL|19.9280077|39.483849||||||||||||||||||POINT(19.9280077 39.483849)
N3688584208|The Village Taverna|FOOD|RESTAURANT|19.9239872|39.4871048||||||||||||||||||POINT(19.9239872 39.4871048)
N3688584209|Corfu Pelagos|ACCOMMODATION|HOTEL|19.9230449|39.4863244||||||||||||||||||POINT(19.9230449 39.4863244)
N3688641384|Tassos|FOOD|RESTAURANT|19.9242686|39.4875994||||||||||||||||||POINT(19.9242686 39.4875994)
N3688952347|Sea Breeze|FOOD|RESTAURANT|19.9289424|39.4848336||||||||||||||||||POINT(19.9289424 39.4848336)
N3688981258|Firefly Taverna|FOOD|RESTAURANT|19.9270699|39.4856304||||||||||||||||||POINT(19.9270699 39.4856304)
N3689865109|Taverna|FOOD|RESTAURANT|19.9283779|39.486951||||||||||||||||||POINT(19.9283779 39.486951)
N3689877227|Filoxenia|ACCOMMODATION|HOTEL|19.924657|39.4880103||||||||||||||||||POINT(19.924657 39.4880103)
N3690469168|Veroniki|ACCOMMODATION|HOTEL|19.9244685|39.4994412||||||||||||||||||POINT(19.9244685 39.4994412)
N3690496507|Abba|TRANSPORT|RENTALCAR|19.9269693|39.479589||||||||||||||||||POINT(19.9269693 39.479589)
N3691743496|Aggelos Family Hotel|ACCOMMODATION|HOTEL|19.93|39.4825701||||||||||||||||||POINT(19.93 39.4825701)
N3691877860|Alexandros|ACCOMMODATION|HOTEL|19.9265613|39.4812353||||||||||||||||||POINT(19.9265613 39.4812353)
N3691877872|Nasos & Daisy|ACCOMMODATION|HOTEL|19.9284956|39.4818734||||||||||||||||||POINT(19.9284956 39.4818734)
N3693831100|Marini Studios|ACCOMMODATION|HOTEL|19.9281336|39.4810984||||||||||||||||||POINT(19.9281336 39.4810984)
N3694017771|The Islands|FOOD|RESTAURANT|19.9251625|39.4850043||||||||||||||||||POINT(19.9251625 39.4850043)
N3697652137|Nikos Taverna|FOOD|RESTAURANT|19.9833418|39.4150128||||||||||||||||||POINT(19.9833418 39.4150128)
N3697666135|Restaurant and Cafe-Bar Santa Barbara|FOOD|RESTAURANT|19.9863494|39.4130946||||||||||||||||||POINT(19.9863494 39.4130946)
N3697666140|Manduvala|FOOD|RESTAURANT|19.9860776|39.4133113||||||||||||||||||POINT(19.9860776 39.4133113)
N3698170828|The Fishermans Haunt|FOOD|RESTAURANT|19.9421109|39.470927||||||||||||||||||POINT(19.9421109 39.470927)
N3699535176|La Grotta|FOOD|BAR|19.7188763|39.6738908||||||||||||||||||POINT(19.7188763 39.6738908)
N3703296845|Bella Grecia|ACCOMMODATION|HOTEL|19.9247679|39.4850813||||||||||||||||||POINT(19.9247679 39.4850813)
N3703682443|Памятник Фёдору Ушакову|TOURIST|MEMORIAL|19.9180538|39.6257524||||||||||||||||||POINT(19.9180538 39.6257524)
N3703686284|Μουσείο χαρτονομισμάτων|TOURIST|MUSEUM|19.922466|39.6246607||||||||||||We-Su||||||POINT(19.922466 39.6246607)
N3703938684|Issos Beach|FOOD|BAR|19.9329009|39.431957||||||||||||||||||POINT(19.9329009 39.431957)
N3703970315|Kostas's Bar Walkers Point|FOOD|BAR|19.9064869|39.532988||||||||||||||||||POINT(19.9064869 39.532988)
N3704900955|Potamaki Beach Hotel|ACCOMMODATION|HOTEL|19.9137964|39.5442498|||||||||||http://www.potamakibeachhotel.com|||||||POINT(19.9137964 39.5442498)
N3708227625|Paradise Bird|FOOD|BAR|19.9286432|39.4827438||||||||||||||||||POINT(19.9286432 39.4827438)
N3709956438|Κάστρο Γαρδικίου|TOURIST|CASTLE2|19.8849234|39.4769135||||||||||||24/7||||||POINT(19.8849234 39.4769135)
N3711677656|Open Tech|POW|UNKOWN|19.920512|39.6260066|||Προσελένδου|35-41||Kerkyra||||||||||||POINT(19.920512 39.6260066)
N3723670767|Vistonia Café|FOOD|BAR|19.6776653|39.7187341|||||49083|||||||||||||POINT(19.6776653 39.7187341)
N3724240672|Ammos|FOOD|RESTAURANT|19.6774189|39.7189403||||||||||||||||||POINT(19.6774189 39.7189403)
N3793726057|Alexis Zorbas|ACCOMMODATION|HOTEL|19.6558379|39.7487731||||||||||||||||||POINT(19.6558379 39.7487731)
N3819328021|Naos Pammegiston Taxiarxon|POW|CHRISTIAN|19.738813|39.687307||||||||||||||||||POINT(19.738813 39.687307)
N3819334945|Virgin Mary|POW|CHRISTIAN|19.7407095|39.6895315||||||||||||||||||POINT(19.7407095 39.6895315)
N3819340578|To Steki / Το στέκι|FOOD|RESTAURANT|19.7403543|39.6894596||||||||||||||||||POINT(19.7403543 39.6894596)
N3819340580|Mini market|SHOP|SUPERMARKET|19.7407164|39.6897053||||||||||||||||||POINT(19.7407164 39.6897053)
N3819353823|Agia Paraskevi|POW|CHRISTIAN|19.7394729|39.6888518||||||||||||||||||POINT(19.7394729 39.6888518)
N3819353824|Agia Anna|POW|CHRISTIAN|19.7326917|39.6978833||||||||||||||||||POINT(19.7326917 39.6978833)
N3819353825|Butcher Shop|SHOP|SUPERMARKET|19.7356788|39.6806349||||||||||||||||||POINT(19.7356788 39.6806349)
N3904100832|Gouvia Marina|ACCOMMODATION|HOTEL|19.8518215|39.6497775|||Skripero||49083|Tzavros||||||||||||POINT(19.8518215 39.6497775)
N3909343477|Elisabeth's Taverna  /Ταβέρνα Ελισάβετ|FOOD|RESTAURANT|19.740445|39.6894493|||Doukades|||||||||||||||POINT(19.740445 39.6894493)
N3909350156|Soula|SHOP|SUPERMARKET|19.7450637|39.6742011||||||||||||||||||POINT(19.7450637 39.6742011)
N3909352280|Bibos|SHOP|SUPERMARKET|19.7408255|39.6837925||||||||||||||||||POINT(19.7408255 39.6837925)
N4062286578|Panorama Apartments & Studios|ACCOMMODATION|HOTEL|19.8535203|39.5494315|||||49084|Agios Gordios|||||www.agiosgordiospanorama.gr|||||Panorama Apartments & Studios||POINT(19.8535203 39.5494315)
N4170136589|Panorama bar|FOOD|RESTAURANT|19.8241175|39.709883||||||||||||||||||POINT(19.8241175 39.709883)
N4190100204|Summer Dream|ACCOMMODATION|HOTEL|19.8519343|39.5444349||||||||||||||||||POINT(19.8519343 39.5444349)
N4200276000|Division Acqui Monument|TOURIST|MONUMENT|19.9253378|39.6253372|||||||||||||"Monument in memory of Italian Division ""Acqui"""|||||POINT(19.9253378 39.6253372)
N4201096463|Main Bus Terminal (KTEL)|TRANSPORT|BUSSTOP|19.9119339|39.6160943||||||Corfu||+302661028900|||http://greenbuses.gr|Mo-Su 06:00-20:30||||||POINT(19.9119339 39.6160943)
N4208040515|Kostas|ACCOMMODATION|HOSTEL|19.9064166|39.5329877||||||||||||||||||POINT(19.9064166 39.5329877)
N4209010747|The Olive Press|ACCOMMODATION|HOSTEL|19.9064884|39.5326337||||||||||||||||||POINT(19.9064884 39.5326337)
N4209894089|Corfu Mare Boutique Hotel|ACCOMMODATION|HOTEL|19.8965326|39.6284596|||Nikolaou Zervou, Kefalomantouko|5|49100|||+30 26610 31011/25804||info@corfumare.gr|www.corfumare.gr|24/7||||||POINT(19.8965326 39.6284596)
N4210976197|Cool & Fresh|FOOD|RESTAURANT|19.9216531|39.790264||||||||||||||||||POINT(19.9216531 39.790264)
N4210976301|Thraka - Grill House|FOOD|RESTAURANT|19.9215138|39.7903317||||||||||||||||||POINT(19.9215138 39.7903317)
N4210977490|San Remo - Grill & Burger House|FOOD|RESTAURANT|19.7078232|39.7918449|||Sidari|||||26630 95017||||||||||POINT(19.7078232 39.7918449)
N4212902694|Pig Masseria|FOOD|RESTAURANT|19.923406|39.623129|||Kapodistriou|32|49100|||||||||||||POINT(19.923406 39.623129)
N4212944697|Aphrodite Apartments|ACCOMMODATION|HOTEL|19.8937877|39.7247697||||||||||||||||||POINT(19.8937877 39.7247697)
N4213321089|Fish Taverna Gregorys|FOOD|RESTAURANT|19.7529747|39.796591|||Astrakeri Beach||49081 Astrakeri|||||||||||||POINT(19.7529747 39.796591)
N4221005295|Adriana Studios|ACCOMMODATION|HOTEL|20.0147719|39.4297636||||||||||||||||||POINT(20.0147719 39.4297636)
N4226447799|Velonades Bus Stop|TRANSPORT|BUSSTOP|19.7175206|39.7538373||||||||||||||||||POINT(19.7175206 39.7538373)
N4226448491|Corfu Naturopathy|HEALTH|HOSPITAL|19.6961113|39.7586373|||Kounavades|||||+306931091551||cgrassnick@gmail.com|http://www.greencorfu.com/naturopathy-corfu-colleen-grassnik/|Mo-Sa 10:00-13:00, 15:00-18:00|by appointment only|||||POINT(19.6961113 39.7586373)
N4226468290|Corfu Taste and Beauty|SHOP|GIFT|19.9224359|39.6252654|||Αγίου Σπυρίδωνος|61||||00302661034686||corfutasteandbeauty@gmail.com||||||||POINT(19.9224359 39.6252654)
N4226484290|Antica Murrina|SHOP|JEWELRY|19.9225729|39.6252413|||Αγίου Σπυρίδωνος|57||||00302661033381||cosmopolitancorfu@gmail.com||||||||POINT(19.9225729 39.6252413)
N4230489631|Mini Mart|SHOP|CONVENIENCE|19.839302|39.654364||||||||||||||||||POINT(19.839302 39.654364)
N4230489633|Roberto e Fei|FOOD|RESTAURANT|19.8441619|39.6525467||||||||||||||||||POINT(19.8441619 39.6525467)
N4233385012|Rolling Stone|FOOD|BAR|19.819482|39.5864301||||||||||||||||||POINT(19.819482 39.5864301)
N4234180390|Kochili|FOOD|RESTAURANT|19.8499337|39.5467479||||||||||||||||||POINT(19.8499337 39.5467479)
N4238303157|Skala|FOOD|RESTAURANT|19.8543699|39.4999907||||||||||||||||||POINT(19.8543699 39.4999907)
N4253576190|Corfu Marina|TOURIST|ATTRACTION|19.9284456|39.6242802||||||||||||||||||POINT(19.9284456 39.6242802)
N4258739695|Kontokali bay water-sports Centre|SHOP|MOTORCYCLE|19.8614853|39.6493964|||Χριστόφορου Κοντόκαλη||49100|||+306977224318||||Mo-Su 10:00-19:00||||||POINT(19.8614853 39.6493964)
N4267835190|Karina hotel |ACCOMMODATION|HOTEL|19.9184984|39.5336887||||||||||||||||||POINT(19.9184984 39.5336887)
N4270535093|Marina studio|ACCOMMODATION|HOTEL|19.7025712|39.7859228||||||||||||||||||POINT(19.7025712 39.7859228)
N4273860914|Hotel Belvedere|ACCOMMODATION|HOTEL|19.9225365|39.5224159|||Corfu Trail|||||||||||||||POINT(19.9225365 39.5224159)
N4274648089|escape |ACCOMMODATION|HOSTEL|19.8394945|39.708259||||||||||||||||||POINT(19.8394945 39.708259)
N4275141195|Ionios gift shop|SHOP|GIFT|19.9560314|39.4563361||||||||||||||||||POINT(19.9560314 39.4563361)
N4275141201|Potamia|POI|VILLAGE|19.9951032|39.4135418||||||||||||||||||POINT(19.9951032 39.4135418)
N4275141204|Santa Barbara beach|TOURIST|BEACH|19.9860357|39.4129042||||||||||||||||||POINT(19.9860357 39.4129042)
N4275141222|Chiesa|POW|UNKOWN|19.9112795|39.545632||||||||||||||||||POINT(19.9112795 39.545632)
N4275202143|Hercules Marine Activities|SHOP|DEPARTMENTSTORE|19.9859905|39.4130912|||||||||||http://www.hercules-scuba.gr/#|||||||POINT(19.9859905 39.4130912)
N4275203166|Taverna Apaggio|FOOD|RESTAURANT|20.0015802|39.4541683||||||Petriti||||||||||||POINT(20.0015802 39.4541683)
N4275376383|Dimitri's Studios|ACCOMMODATION|HOTEL|19.8149747|39.7959134||||||||||||||||||POINT(19.8149747 39.7959134)
N4281790697|Cafetierra|FOOD|CAFE|19.9237213|39.621587|||Καποδιστρίου|8|49100|||+302661025904||info@cafetierra.gr|http://cafetierra.gr|||||Micro Roasters Coffee Lab||POINT(19.9237213 39.621587)
N4282017693|Mammo's Taverna|FOOD|RESTAURANT|19.9270915|39.4796227||||||||||||||||||POINT(19.9270915 39.4796227)
N4282582078|Zacks|FOOD|RESTAURANT|19.9562469|39.4251846||||||||||||||||||POINT(19.9562469 39.4251846)
N4286602292|Markioies|SHOP|CONFECTIONERY|19.9285848|39.4775717||||||||||||||||||POINT(19.9285848 39.4775717)
N4288620392|Despina|SHOP|CONFECTIONERY|19.9247672|39.4851447||||||||||||||||||POINT(19.9247672 39.4851447)
N4288652189|Coop|SHOP|SUPERMARKET|19.9248471|39.4858554||||||||||||||||||POINT(19.9248471 39.4858554)
N4291023649|Κρητικός|SHOP|CONFECTIONERY|19.9179753|39.6220987||||||||||||||||||POINT(19.9179753 39.6220987)
N4291299759|Green Bus|TRANSPORT|BUSSTOP|19.9164956|39.6213977||||||||||||||||||POINT(19.9164956 39.6213977)
N4295398091|Oniro Villas|ACCOMMODATION|HOTEL|19.9238873|39.5157712||||||||||||||||||POINT(19.9238873 39.5157712)
N4298815876|Three brothers|FOOD|RESTAURANT|19.7563246|39.7951736||||||||||||||||||POINT(19.7563246 39.7951736)
N4300824434|Taverna Troumbeta|FOOD|RESTAURANT|19.7470612|39.7064974||||||||||||||||||POINT(19.7470612 39.7064974)
N4302611268|Corfu Boutique House|ACCOMMODATION|HOTEL|19.6476007|39.7603097||||||||||||||||||POINT(19.6476007 39.7603097)
N4302939818|Άγαλμα Ιωάννη Καποδίστρια|TOURIST|MEMORIAL|19.9241107|39.6208773||||||||||||||||||POINT(19.9241107 39.6208773)
N4304423093|Best|SHOP|GREENGROCER|19.892567|39.5922692||||||||||||||||||POINT(19.892567 39.5922692)
N4304650002|Snack Bar Neon|FOOD|CAFE|19.786708|39.7774974||||||||||||||||||POINT(19.786708 39.7774974)
N4306248692|Gyroperasma Souvlaki|FOOD|RESTAURANT|19.9109938|39.6139236||||||||||||||||||POINT(19.9109938 39.6139236)
N4306276892|Public Bus Stop to Corfu Town|TRANSPORT|BUSSTOP|19.7112777|39.7762713|||||||||||http://greenbuses.gr|||||||POINT(19.7112777 39.7762713)
N4306460648|Ice Creams, Beer, Tost, Sanwiches|FOOD|RESTAURANT|19.9047969|39.5617059||||||||||||||||||POINT(19.9047969 39.5617059)
N4306460649|Bella Vista Restaurant Cafe|FOOD|RESTAURANT|19.9050973|39.5617513||||||||||||||||||POINT(19.9050973 39.5617513)
N4307143291|Ticket office|SHOP|KIOSK|19.9258886|39.6234506||||||||||||||||||POINT(19.9258886 39.6234506)
N4307144491|Ενετικά Ναυπηγεία|TOURIST|RUINS|19.8465834|39.652683||||||||||||||||||POINT(19.8465834 39.652683)
N4307250789|Μουσείο Θαλάσσης|TOURIST|MUSEUM|19.914331|39.5439693|||||||||||http://www.corfushellmuseum.com|||||||POINT(19.914331 39.5439693)
N4307616808|Επίσκεψη|FOOD|CAFE|19.8169031|39.7590556||||||||||||||||||POINT(19.8169031 39.7590556)
N4311385193|Munchise|FOOD|RESTAURANT|19.707407|39.7925374||||||||||||||||||POINT(19.707407 39.7925374)
N4311464958|Taverna Sunset|FOOD|RESTAURANT|19.6869487|39.6860677||||||||||||||||||POINT(19.6869487 39.6860677)
N4312681348|Taverna Savvas|FOOD|RESTAURANT|20.0066916|39.4441385||||||Notos||||||||||||POINT(20.0066916 39.4441385)
N4314406190|Pazuzu|FOOD|BAR|19.8084181|39.592423|||Glyfada Corfu Greece||49100|||+302661094444||||Mo-Su 10:00-01:00||||||POINT(19.8084181 39.592423)
N4315750691|Monasteri Agios Dimitriou|POW|CHRISTIAN|19.7567644|39.7412699||||||||||||||||||POINT(19.7567644 39.7412699)
N4316719594|Zaks Family Taverna|FOOD|RESTAURANT|19.9299921|39.4763134||||||||||||||||||POINT(19.9299921 39.4763134)
N4316974190|Baratos|FOOD|RESTAURANT|20.0238593|39.39451||||||||||||||||||POINT(20.0238593 39.39451)
N4317297532|Церковь Святой Прасковьи|TOURIST|ATTRACTION|19.9057792|39.5339357||||||||||||||||||POINT(19.9057792 39.5339357)
N4317312310|Kerkyra apartotel|ACCOMMODATION|HOTEL|19.9157443|39.5393745||||||||||||||||||POINT(19.9157443 39.5393745)
N4317331604|Вид на остров Корфу (2400 метров)|TOURIST|ATTRACTION|19.907862|39.5331133||||||||||||||||||POINT(19.907862 39.5331133)
N4321034798|Tavern Barbados|FOOD|RESTAURANT|19.9904946|39.4132411||||||||||||||||||POINT(19.9904946 39.4132411)
N4321035021|Restaurant and Coctail Bar Maltas|FOOD|RESTAURANT|19.9920313|39.4140209||||||||||||||||||POINT(19.9920313 39.4140209)
N4324935089|Corfu Explore car hire|TRANSPORT|RENTALCAR|19.91342|39.611893|||Georgaki 33 Corfu Greece||49100|||00306938367886||corfuexplorecarhire@gmail.com|http://www.corfuexplorecarhire.com|24/7||||owner||POINT(19.91342 39.611893)
N4325023490|Mancare|FOOD|FASTFOOD|19.91877|39.6251792||||||||||||||||||POINT(19.91877 39.6251792)
N4326035790|Roda Beach plajă șmecheră|TOURIST|ART|19.7887161|39.7911128||||||||||||||||||POINT(19.7887161 39.7911128)
N4326035990|Mâncare|FOOD|FASTFOOD|19.9234312|39.6239964||||||||||||||||||POINT(19.9234312 39.6239964)
N4326778493|No Water source|TOURIST|ATTRACTION|19.9138427|39.5396272||||||||||||||||||POINT(19.9138427 39.5396272)
N4328978492|ILIOS|SHOP|JEWELRY|19.6816751|39.7156995||||||||+30266096043||ilios@ilios-living-art.com|http://www.ilios-living-art.com|mo-sa 10:00-14:00, 17:00-21:00||||||POINT(19.6816751 39.7156995)
N4329054391|Arillas car rental and Transfers|TRANSPORT|RENTALCAR|19.6499253|39.743678||||||||||arillascars@gmail.com||Mo-Su 09:29-22:30||||||POINT(19.6499253 39.743678)
N4329536292|Korfu Maris Bellos|ACCOMMODATION|HOTEL|19.923031|39.5254532||||||||||||||||||POINT(19.923031 39.5254532)
N4329568397|Arokaria|FOOD|RESTAURANT|19.9224056|39.5250547||||||||||||||||||POINT(19.9224056 39.5250547)
N4329607711|Loris. Traditional taverna.|FOOD|RESTAURANT|19.9128016|39.5465427||||||||||||||||||POINT(19.9128016 39.5465427)
N4331019892|Plaja cu valuri|TOURIST|ART|19.8170687|39.7980884||||||||||||||||||POINT(19.8170687 39.7980884)
N4331079395|EKO|TRANSPORT|FUEL|19.8801332|39.5657228||||||||||||||||||POINT(19.8801332 39.5657228)
N4331348191|Benetcia|FOOD|CAFE|19.9127847|39.5465687||||||||||||||||||POINT(19.9127847 39.5465687)
N4332666117|PLUS   Language School|EDUCATION|SCHOOL|19.9164993|39.6212632||||||||||||||||||POINT(19.9164993 39.6212632)
N4333449403|Taverna Barbara's|FOOD|RESTAURANT|19.91483|39.5412283||||||||||||||||||POINT(19.91483 39.5412283)
N4333581393|Health Care Center (Government)|HEALTH|HOSPITAL|19.7188686|39.722871||||||||||||||||||POINT(19.7188686 39.722871)
N4336799989|Mediterraneo|FOOD|RESTAURANT|19.7024733|39.67261||||||||||||||||||POINT(19.7024733 39.67261)
N4337549290|Broken ship|TOURIST|ATTRACTION|19.8459239|39.5525547||||||||||||||||||POINT(19.8459239 39.5525547)
N4338199489|VillaThalassa|ACCOMMODATION|HOTEL|19.8846957|39.7980595||||||||00306977783136||||24/7||||Δήμητρα||POINT(19.8846957 39.7980595)
N4339504089|Mezza volta|FOOD|RESTAURANT|19.912702|39.5469127||||||||||||||||||POINT(19.912702 39.5469127)
