"uri"|"id"|"source"|"lon"|"lat"|"the_geom"|"length_m"|"area_m2"|"category"|"generic_category"|"name"|"description"|"phone"|"fax"|"email"|"homepage"|"street"|"street_num"|"postCode"|"locality"|"country"|"open_hours"|"wikipedia"|"image"|"confScore"|"attrGain"
"http://slipo.eu/id/poi/f6cff505-4519-3957-8854-c5501950b825"|"W554529423"|"OpenStreetMap"|"19.927324136865227"|"39.60995640098382"|"SRID=4326;MULTIPOLYGON (((19.9272621 39.6099793, 19.9273882 39.6099772, 19.9273909 39.6099359, 19.9272595 39.6099338, 19.9272621 39.6099793)))"|"31.75699098470931"|"53.24635717378802"|"BAR"|"EAT/DRINK"|"Pool Bar"|""|""|""|""|""|""|""|""|""|""|""|""|""|""|"1.0"
"http://slipo.eu/id/poi/fb3e3272-314c-39b0-9257-65b0fbea9d1f"|"N1993281238"|"OpenStreetMap"|"19.8242625"|"39.6958613"|"SRID=4326;POINT (19.8242625 39.6958613)"|""|""|"SUPERMARKET"|"SHOP"|"Zaharias"|""|""|""|""|""|""|""|""|""|""|""|""|""|""|"1.0"
"http://slipo.eu/id/poi/0ad0c120-56a9-38cd-a657-66a886dc73a1"|"N1983913581"|"OpenStreetMap"|"19.8429362"|"39.6874175"|"SRID=4326;POINT (19.8429362 39.6874175)"|""|""|"CAFE"|"EAT/DRINK"|"Mouratoros"|""|""|""|""|""|""|""|""|""|""|""|""|""|""|"1.0"
"http://slipo.eu/id/poi/714a015c-47b6-3fcd-9d79-af52ba9c7abe"|"4161"|"GET"|"19.91712491655247"|"39.62036040816285"|"SRID=4326;MULTIPOINT ((19.91712491655247 39.62036040816285))"|""|""|"Super Market"|"SHOP"|"Dimitra - Markato; Δήμητρα - Μαρκάτο"|""|"2661022682"|""|""|"http://www.dimitramarkets.gr"|"Μητοπολίτου Μεθοδίου 9 & Λίνου Κογεβίνα"|""|""|""|""|""|""|""|""|""
"http://slipo.eu/id/poi/5214fd51-0d24-3373-9d88-bd2d10f7fda6"|"N1772947158"|"OpenStreetMap"|"19.8030827"|"39.6314781"|"SRID=4326;POINT (19.8030827 39.6314781)"|""|""|"VILLAGE"|"SETTLEMENTS"|"Κουραμαδίτικα"|""|""|""|""|""|""|""|"49100"|""|""|""|""|""|""|"1.0"
"http://slipo.eu/id/poi/4786f4c0-1c81-3dbb-9487-c5f587399064"|"N1872478399"|"OpenStreetMap"|"19.6755133"|"39.7213211"|"SRID=4326;POINT (19.6755133 39.7213211)"|""|""|"HOTEL"|"ACCOMMODATION"|"Villa Akis"|""|""|""|""|""|""|""|""|""|""|""|""|""|""|"1.0"
"http://slipo.eu/id/poi/a4959fce-8bfc-3926-b4b0-216915d397ba"|"N4359125189"|"OpenStreetMap"|"19.8492172"|"39.6707623"|"SRID=4326;POINT (19.8492172 39.6707623)"|""|""|"BAR"|"EAT/DRINK"|"toucan beach bar"|""|""|""|""|""|""|""|""|""|""|""|""|""|""|"1.0"
"http://slipo.eu/id/poi/9997b631-8470-32b8-a388-136c2447625d"|"N1363984223"|"OpenStreetMap"|"19.8764423"|"39.6343089"|"SRID=4326;POINT (19.8764423 39.6343089)"|""|""|"VILLAGE"|"SETTLEMENTS"|"Αλυκές Ποταμού"|""|""|""|""|""|""|""|""|""|""|""|""|""|""|"1.0"
"http://slipo.eu/id/poi/5be561ff-834f-3185-a588-42bad9abf947"|"2321"|"GET"|"19.924433742666356"|"39.62697572999521"|"SRID=4326;MULTIPOINT ((19.924433742666356 39.62697572999521))"|""|""|"Culture – Entertainment"|"TOURISM"|"Εταιρεία Κερκυραϊκών Σπουδών; CORFU STUDIES SOCIETY"|""|"2661033060"|"0"|""|""|"Αρσενίου"|"1"|"49100"|""|""|""|""|""|""|""
"http://slipo.eu/id/poi/df07a46d-a1a7-34f0-b9fc-755ea4afa8fa"|"N3089722289"|"OpenStreetMap"|"19.8953295"|"39.6063914"|"SRID=4326;POINT (19.8953295 39.6063914)"|""|""|"SUPERMARKET"|"SHOP"|"Σκλαβενίτης"|""|""|""|""|""|""|""|""|""|""|""|""|""|""|"1.0"
"http://slipo.eu/id/poi/ae22e726-8853-37d6-a5cb-3e3ec35bcfa0"|"N534608000"|"OpenStreetMap"|"19.8657776"|"39.8088564"|"SRID=4326;POINT (19.8657776 39.8088564)"|""|""|"RESTAURANT"|"EAT/DRINK"|"Karbouris Taverna"|""|""|""|""|""|""|""|""|""|""|""|""|""|""|"1.0"
"http://slipo.eu/id/poi/92814859-8606-3827-a54f-6e72125f6e76"|"4120"|"GET"|"19.85399387166373"|"39.644280479322234"|"SRID=4326;MULTIPOINT ((19.85399387166373 39.644280479322234))"|""|""|"Super Market"|"SHOP"|"ΑΒ Βασιλόπουλος; AB Vasilopoulos"|""|"0"|""|""|""|"6Οχιλ.Εο Κ.Παλ/Τσας Κοντοκαλι"|""|"49100"|""|""|""|""|""|""|""
"http://slipo.eu/id/poi/7902fc9e-8651-3a96-8399-f71f3f45c0a4"|"N1987964556"|"OpenStreetMap"|"19.8508671"|"39.6447193"|"SRID=4326;POINT (19.8508671 39.6447193)"|""|""|"BUSSTOP"|"TRANSPORT"|"Kontokali"|""|""|""|""|""|""|""|""|""|""|""|""|""|""|"1.0"
"http://slipo.eu/id/poi/3aba6fcf-cf78-390f-abea-0a19f6bc75f5"|"N1771624496"|"OpenStreetMap"|"19.9497513"|"39.4674824"|"SRID=4326;POINT (19.9497513 39.4674824)"|""|""|"HAMLET"|"SETTLEMENTS"|"Ψαράς"|""|""|""|""|""|""|""|"49080"|""|""|""|""|""|""|"1.0"
"http://slipo.eu/id/poi/24defd88-04bb-3ec9-9ccb-5d4f98430e6f"|"N5557718143"|"OpenStreetMap"|"19.8657414"|"39.8154109"|"SRID=4326;POINT (19.8657414 39.8154109)"|""|""|"BAR"|"EAT/DRINK"|"Pyramid City Bar"|""|""|""|""|""|"Agios Spyridon, Perithia"|""|"49081"|"Corfu"|""|""|""|""|""|"1.0"
"http://slipo.eu/id/poi/d21e8afd-2cb2-3b75-877e-cfc414c525c8"|"N1090899147"|"OpenStreetMap"|"20.0789557"|"39.420952"|"SRID=4326;POINT (20.0789557 39.420952)"|""|""|"COPYSHOP"|"SHOP"|"Ψίκος"|""|""|""|""|""|""|""|""|""|""|""|""|""|""|"1.0"
"http://slipo.eu/id/poi/54a1886a-3adf-3af7-9daf-9317e2e0c024"|"W290028100"|"OpenStreetMap"|"19.886778900000003"|"39.44764685"|"SRID=4326;MULTIPOLYGON (((19.886859 39.4476578, 19.8867945 39.4475852, 19.8866988 39.4476359, 19.8867633 39.4477085, 19.886859 39.4476578)))"|"39.51786894772666"|"97.59420007492906"|"BAR"|"EAT/DRINK"|"Tayo Beach Bar"|""|""|""|""|""|""|""|""|""|""|""|""|""|""|"1.0"
"http://slipo.eu/id/poi/860b1746-eee4-3237-9212-a05625bb6eef"|"N1421062502"|"OpenStreetMap"|"19.875971"|"39.4523548"|"SRID=4326;POINT (19.875971 39.4523548)"|""|""|"BAR"|"EAT/DRINK"|"Simos"|""|""|""|""|""|""|""|""|""|""|""|""|""|""|"1.0"
"http://slipo.eu/id/poi/c517ddf7-0a6d-329b-b615-c7488597f12d"|"W345780778"|"OpenStreetMap"|"19.92467914825404"|"39.625818569112084"|"SRID=4326;MULTIPOLYGON (((19.9243986 39.6261162, 19.924263 39.6261413, 19.9240902 39.6255876, 19.9241935 39.6255684, 19.9242192 39.6256508, 19.9242267 39.6256685, 19.9242592 39.625691, 19.9242786 39.6257013, 19.9243146 39.6257091, 19.924348 39.6257039, 19.9243913 39.625698, 19.9244152 39.6256933, 19.9246188 39.625656, 19.9247533 39.6256324, 19.9249367 39.6256003, 19.9249944 39.6255903, 19.9250796 39.6255717, 19.9251057 39.625545, 19.9251152 39.6255237, 19.9251076 39.6254896, 19.9250839 39.6254112, 19.9251928 39.6253907, 19.9252666 39.6256275, 19.9249768 39.6256811, 19.9250984 39.6260712, 19.9249663 39.6260956, 19.9249448 39.6260996, 19.924895 39.6259398, 19.9246906 39.6259776, 19.9247405 39.6261376, 19.924573 39.6261686, 19.924449 39.625771, 19.9243586 39.625787, 19.9242995 39.6257987, 19.9243986 39.6261162)))"|"475.68469180824394"|"3456.923466864623"|"MUSEUM"|"TOURISM"|"Μουσείο Ασιατικής Τέχνης"|""|"+30 26610 30443"|""|""|""|"Παλαιά Ανάκτορα"|""|"49100"|"Κέρκυρα"|""|""|"en.wikipedia.org/wiki/Museum of Asian Art of Corfu"|"https://upload.wikimedia.org/wikipedia/commons/0/0f/Palaia_Anaktora_in_Kerkyra._%28cropped%29.jpg"|""|"1.0"
"http://slipo.eu/id/poi/e1d70623-e076-3334-b363-dd5ada34f8ed"|"N1363983493"|"OpenStreetMap"|"19.8952865"|"39.6167918"|"SRID=4326;POINT (19.8952865 39.6167918)"|""|""|"VILLAGE"|"SETTLEMENTS"|"Αλεπού"|""|""|""|""|""|""|""|"49100"|""|""|""|""|""|""|"1.0"
"http://slipo.eu/id/poi/1b0b1229-742f-307c-bf93-e5b5a5ac8c2d"|"N1773904463"|"OpenStreetMap"|"19.6618451"|"39.7770234"|"SRID=4326;POINT (19.6618451 39.7770234)"|""|""|"VILLAGE"|"SETTLEMENTS"|"Αυλιώτες"|""|""|""|""|""|""|""|"49081"|""|""|""|""|""|""|"1.0"
"http://slipo.eu/id/poi/89b07ae2-5da7-303c-9731-b9f65b4bbc79"|"N252947525"|"OpenStreetMap"|"19.8193811"|"39.7930721"|"SRID=4326;POINT (19.8193811 39.7930721)"|""|""|"VILLAGE"|"SETTLEMENTS"|"Αχαράβη"|""|""|""|""|""|""|""|"49100"|""|""|""|""|""|""|"1.0"
"http://slipo.eu/id/poi/3ea7bc11-a931-3f2f-a6ea-171cf5e64878"|"N4461111298"|"OpenStreetMap"|"19.3865655"|"39.8558623"|"SRID=4326;POINT (19.3865655 39.8558623)"|""|""|"CHRISTIAN"|"RELIGIOUS"|"Παναγία"|""|""|""|""|""|""|""|""|""|""|""|""|""|""|"1.0"
"http://slipo.eu/id/poi/55efbb9a-9781-3672-96b2-13741dbc1967"|"2370"|"GET"|"19.85291539200684"|"39.49972473702176"|"SRID=4326;MULTIPOINT ((19.85291539200684 39.49972473702176))"|""|""|"Tourism"|"TOURISM"|"SKALA BEACH; Παραλία Σκάλα"|""|"0"|""|""|""|""|""|""|""|""|""|""|""|""|""
"http://slipo.eu/id/poi/f43118e1-bf35-3403-aa8d-7d5a119af75f"|"W129367008"|"OpenStreetMap"|"19.72455191738955"|"39.66623194128871"|"SRID=4326;MULTIPOLYGON (((19.7243938 39.666176, 19.7244745 39.6661544, 19.7244893 39.6661561, 19.7245495 39.6661627, 19.7246676 39.6662618, 19.7246534 39.6663448, 19.7244065 39.6661863, 19.7243938 39.666176)))"|"67.18795271113854"|"208.3466892764882"|"BEACH"|"NATURAL ATTRACTION"|"Part"|""|""|""|""|""|""|""|""|""|""|""|""|""|""|"1.0"
"http://slipo.eu/id/poi/cd0f657d-676c-3e80-8036-fbc0fe258632"|"N4408677858"|"OpenStreetMap"|"19.6491545"|"39.742561"|"SRID=4326;POINT (19.6491545 39.742561)"|""|""|"RESTAURANT"|"EAT/DRINK"|"Horizon"|""|""|""|""|""|""|""|""|""|""|""|""|""|""|"1.0"
"http://slipo.eu/id/poi/bb80c2b3-6127-3f46-953a-e504ee1b0096"|"2469"|"GET"|"19.89825850162841"|"39.62360890418411"|"SRID=4326;MULTIPOINT ((19.89825850162841 39.62360890418411))"|""|""|"Food"|"EAT/DRINK"|"Tonis Grill; Tonis Grill"|""|"2661048292"|""|""|""|"Κέρκυρας-Παλαιοκαστρίτσας"|"31"|""|""|""|""|""|""|""|""
"http://slipo.eu/id/poi/af2d9bf9-d40e-3637-8d37-77160292f1b8"|"1597"|"GET"|"19.88262486958347"|"39.63165690021305"|"SRID=4326;MULTIPOINT ((19.88262486958347 39.63165690021305))"|""|""|"Public Services"|"PUBLIC SERVICE"|"TOURISM ADMINISTRATION OF CORFU; Διεύθυνση Τουρισμού Κέρκυρας"|""|"0"|""|""|""|""|""|""|""|""|""|""|""|""|""
"http://slipo.eu/id/poi/6221ee4a-fdac-3152-8e39-f3cb09d22533"|"W345329533"|"OpenStreetMap"|"19.92517286131931"|"39.60532186648018"|"SRID=4326;MULTIPOLYGON (((19.9227156 39.6040784, 19.9228022 39.6044283, 19.9228931 39.6046758, 19.9229261 39.6048713, 19.9229138 39.6050648, 19.9229213 39.6052245, 19.9231044 39.6054253, 19.9232963 39.605525, 19.923604 39.6056717, 19.9237328 39.6057232, 19.9238019 39.6059418, 19.9236557 39.6061305, 19.9235207 39.6064572, 19.9232949 39.6068384, 19.9230197 39.6071251, 19.9226866 39.6075301, 19.9230086 39.607753, 19.9236408 39.6083416, 19.9252787 39.6086051, 19.9258432 39.6088665, 19.9260398 39.609281, 19.9261596 39.6093209, 19.9263646 39.609343, 19.9267472 39.6093353, 19.9269484 39.6092859, 19.9265907 39.608604, 19.9265313 39.6084014, 19.926505 39.6082112, 19.9265359 39.6080935, 19.9266098 39.6079493, 19.9267098 39.6078185, 19.9267168 39.607727, 19.9267534 39.6076474, 19.9267594 39.6075584, 19.9268033 39.6074751, 19.9268768 39.6074183, 19.9269495 39.6073781, 19.9270211 39.607333, 19.9270608 39.6072836, 19.9270061 39.6071995, 19.9269012 39.6070562, 19.9267712 39.6066854, 19.926753 39.6065087, 19.926804 39.605928, 19.9267584 39.6057027, 19.9266237 39.6053842, 19.9265787 39.6052874, 19.926576 39.6051985, 19.9266242 39.6051427, 19.9266028 39.6050663, 19.926731 39.6049296, 19.9267476 39.6045186, 19.9269384 39.6043401, 19.9270182 39.6042619, 19.9271338 39.6041481, 19.927264 39.6040218, 19.9273519 39.603932, 19.9273955 39.6038875, 19.9275117 39.6037552, 19.9275787 39.6036631, 19.9275989 39.6035763, 19.9275734 39.6035203, 19.9274515 39.6034559, 19.92734 39.6034248, 19.9272263 39.6034044, 19.9270853 39.6033858, 19.9269247 39.603348, 19.9267656 39.6032999, 19.9266472 39.6032627, 19.9265354 39.6032184, 19.9263958 39.6031461, 19.9262997 39.603075, 19.9262748 39.6030209, 19.9262716 39.6029537, 19.9262851 39.6028852, 19.926302 39.6028093, 19.9263103 39.6027304, 19.926305 39.6026575, 19.9262807 39.6025957, 19.9262488 39.6025127, 19.9262343 39.6024315, 19.9262375 39.6023513, 19.9262598 39.6022756, 19.9262894 39.6022131, 19.9263362 39.6021456, 19.9263869 39.6020708, 19.9264446 39.602023, 19.9265241 39.6019827, 19.9266113 39.6019472, 19.92672 39.6018922, 19.9267422 39.6018615, 19.9267286 39.6018193, 19.9267106 39.6017784, 19.9266303 39.6016752, 19.9265755 39.6016159, 19.9265233 39.601531, 19.9264922 39.601448, 19.9264888 39.6013473, 19.9264975 39.6012747, 19.9265205 39.6011772, 19.9256182 39.6009599, 19.9251288 39.6013068, 19.9248235 39.6015233, 19.9248128 39.6018397, 19.9247157 39.6020133, 19.9244343 39.6023999, 19.9240175 39.6029674, 19.9239394 39.6030941, 19.9238952 39.6032063, 19.9238566 39.6033964, 19.9239303 39.6037775, 19.9235561 39.6040129, 19.9232154 39.604096, 19.9229908 39.6041146, 19.9227156 39.6040784)))"|"2514.399195709402"|"224155.59146935318"|"GRASS"|"LANDUSE"|"Mon Repos"|""|""|""|""|""|""|""|""|""|""|""|""|""|""|"1.0"
"http://slipo.eu/id/poi/e0ccd583-e677-36e9-90f0-a62b4501a7e0"|"N1983921507"|"OpenStreetMap"|"19.8301267"|"39.6889047"|"SRID=4326;POINT (19.8301267 39.6889047)"|""|""|"RESTAURANT"|"EAT/DRINK"|"Taverna Limeri"|""|""|""|""|""|""|""|""|""|""|""|""|""|""|"1.0"
"http://slipo.eu/id/poi/6b1b4bef-29a9-3974-a6c6-f391ed3832a9"|"N5112419927"|"OpenStreetMap"|"19.9347117"|"39.4752203"|"SRID=4326;POINT (19.9347117 39.4752203)"|""|""|"RESTAURANT"|"EAT/DRINK"|"Romeo"|""|""|""|""|""|""|""|""|""|""|""|""|""|""|"1.0"
"http://slipo.eu/id/poi/a48323d0-33dd-34b4-b72f-c728bdaf501e"|"N2923920970"|"OpenStreetMap"|"19.8173627"|"39.7919585"|"SRID=4326;POINT (19.8173627 39.7919585)"|""|""|"GREENGROCER"|"SHOP"|"Tutti frutti"|""|""|""|""|""|""|""|""|""|""|""|""|""|""|"1.0"
"http://slipo.eu/id/poi/77470763-d2a7-37fd-969e-93e1b4268b99"|"2573"|"GET"|"19.644240929887747"|"39.75656288296494"|"SRID=4326;MULTIPOINT ((19.644240929887747 39.75656288296494))"|""|""|"Accommodation"|"ACCOMMODATION"|"Vicky's Apartments; Vicky's Apartments"|""|"0"|""|""|""|""|""|""|""|""|""|""|""|""|""
"http://slipo.eu/id/poi/72ecb32b-a73d-3d33-9cf5-82dbdc7e940c"|"N1424565169"|"OpenStreetMap"|"19.9450749"|"39.4308491"|"SRID=4326;POINT (19.9450749 39.4308491)"|""|""|"HOTEL"|"ACCOMMODATION"|"Pension Dionysos"|""|""|""|""|""|""|""|""|""|""|""|""|""|""|"1.0"
"http://slipo.eu/id/poi/68dd09ff-ad9e-3b65-b9aa-3a168e07f91d"|"N859337970"|"OpenStreetMap"|"19.665897"|"39.7226842"|"SRID=4326;POINT (19.665897 39.7226842)"|""|""|"RESTAURANT"|"EAT/DRINK"|"Tavern Golden Moon"|""|""|""|""|""|""|""|""|""|""|""|""|""|""|"1.0"
"http://slipo.eu/id/poi/a7c9c101-c787-3a27-9c1e-51bcb6d1f5e9"|"N4931154644"|"OpenStreetMap"|"19.9044072"|"39.563712"|"SRID=4326;POINT (19.9044072 39.563712)"|""|""|"MONUMENT"|"TOURISM"|"Statue Of Achilles"|""|""|""|""|""|""|""|""|""|""|""|""|""|""|"1.0"
"http://slipo.eu/id/poi/d67fbc0d-aa9d-3e5a-8c64-a3acdd0c479a"|"N2925167733"|"OpenStreetMap"|"19.818061"|"39.793507"|"SRID=4326;POINT (19.818061 39.793507)"|""|""|"FASTFOOD"|"EAT/DRINK"|"Pitta house"|""|""|""|""|""|""|""|""|"Acharavi"|""|""|""|""|""|"1.0"
"http://slipo.eu/id/poi/1d03ea46-a0f3-3f7b-9570-6472023f191b"|"4159"|"GET"|"20.04513577188857"|"39.42224787853934"|"SRID=4326;MULTIPOINT ((20.04513577188857 39.42224787853934))"|""|""|"Super Market"|"SHOP"|"Dimitra - Markato; Δήμητρα - Μαρκάτο"|""|"2662025212"|""|""|"http://www.dimitramarkets.gr"|"Λευκίμμη"|""|"49080"|""|""|""|""|""|""|""
"http://slipo.eu/id/poi/643b3324-71a1-3ff4-bd6f-142db1a01204"|"2195"|"GET"|"19.726112443267684"|"39.71877703282827"|"SRID=4326;MULTIPOINT ((19.726112443267684 39.71877703282827))"|""|""|"Education"|"EDUCATION"|"HIGH SCHOOL OF AGROS; Λύκειο Αγρού"|""|"0"|""|""|""|""|""|""|""|""|""|""|""|""|""
"http://slipo.eu/id/poi/158c2664-b854-361b-8597-d333835dc1f0"|"N1917127032"|"OpenStreetMap"|"19.6617251"|"39.7424486"|"SRID=4326;POINT (19.6617251 39.7424486)"|""|""|"RESTAURANT"|"EAT/DRINK"|"Tria Adelphia"|""|""|""|""|""|""|""|""|""|""|""|""|""|""|"1.0"
"http://slipo.eu/id/poi/3c482bfd-03ca-38c8-8402-c90c28deec4f"|"3858"|"GET"|"19.918806734080434"|"39.62186056482825"|"SRID=4326;MULTIPOINT ((19.918806734080434 39.62186056482825))"|""|""|"ATM"|"BUSINESS"|"Alpha Bank - Πλ. Σαροκου; Alpha Bank - Sarokou Square"|""|"0"|""|""|"http://www.alpha.gr"|"Θεοτόκη Γεώργιου"|"71"|"49100"|""|""|""|""|""|""|""
"http://slipo.eu/id/poi/21f41487-2854-3f98-b0cf-03f73ae299a9"|"W330771265"|"OpenStreetMap"|"19.916478532504904"|"39.616869953881896"|"SRID=4326;MULTIPOLYGON (((19.9161219 39.6171792, 19.9167429 39.6171958, 19.9167617 39.6170061, 19.9168158 39.6170087, 19.9168529 39.6165768, 19.9161723 39.6165507, 19.9161219 39.6171792)))"|"255.54720017922597"|"3951.9741266557194"|"SCHOOL"|"EDUCATION"|"3o & 4o Γυμνάσιο Κέρκυρας"|""|""|""|""|""|""|""|""|""|""|""|""|""|""|"1.0"
"http://slipo.eu/id/poi/a5555855-e081-3850-a2ae-30f9d511b00b"|"N489968495"|"OpenStreetMap"|"19.8786011"|"39.786361"|"SRID=4326;POINT (19.8786011 39.786361)"|""|""|"VILLAGE"|"SETTLEMENTS"|"Λούτσες"|""|""|""|""|""|""|""|"49100"|""|""|""|""|""|""|"1.0"
"http://slipo.eu/id/poi/bcb220fb-93bc-372d-8385-20dd8b86511b"|"N3703938684"|"OpenStreetMap"|"19.9329009"|"39.431957"|"SRID=4326;POINT (19.9329009 39.431957)"|""|""|"BAR"|"EAT/DRINK"|"Issos Beach"|""|""|""|""|""|""|""|""|""|""|""|""|""|""|"1.0"
"http://slipo.eu/id/poi/09ca23e2-0319-3c49-82d4-cd9afdd99224"|"3541"|"GET"|"19.904288251766115"|"39.610737229971186"|"SRID=4326;MULTIPOINT ((19.904288251766115 39.610737229971186))"|""|""|"Gas Stations"|"AUTOMOTIVE"|"BP; BP"|""|"0"|""|""|"http://www.bp.com"|""|"0"|""|""|""|""|""|""|""|""
"http://slipo.eu/id/poi/ba46c257-0990-3ce6-93bd-b3f3ccebe5e2"|"W471251913"|"OpenStreetMap"|"19.650544378694985"|"39.74687811279296"|"SRID=4326;MULTIPOLYGON (((19.6502121 39.7465923, 19.6504535 39.7469687, 19.6504711 39.7469621, 19.6505376 39.7470668, 19.6506343 39.7470305, 19.6506762 39.7470966, 19.6508241 39.7470412, 19.6508076 39.7470151, 19.6509134 39.7469756, 19.6508555 39.7468839, 19.650625 39.7469699, 19.6505716 39.7468852, 19.6505398 39.7468971, 19.6505023 39.7468903, 19.6505023 39.7468512, 19.6504714 39.7468393, 19.6504802 39.7468054, 19.6504223 39.7468239, 19.6503956 39.7467743, 19.6504581 39.7467544, 19.6504 39.7467411, 19.6504139 39.7467051, 19.6503874 39.7466916, 19.650394 39.7466695, 19.6503186 39.746552, 19.6502121 39.7465923)))"|"223.63319887620372"|"878.8151673942651"|"HOTEL"|"ACCOMMODATION"|"Thetis Palas"|""|""|""|""|""|""|""|""|""|""|""|""|""|""|"1.0"
"http://slipo.eu/id/poi/992efd72-6c03-33cf-a86a-12797a7999a4"|"N5100533735"|"OpenStreetMap"|"19.9207084"|"39.6233943"|"SRID=4326;POINT (19.9207084 39.6233943)"|""|""|"DEPARTMENTSTORE"|"SHOP"|"Optics"|""|""|""|""|""|""|""|""|""|""|""|""|""|""|"1.0"
"http://slipo.eu/id/poi/0c85d1f4-e369-342e-b576-b2d7f9f84310"|"N761130052"|"OpenStreetMap"|"19.8528793"|"39.5469849"|"SRID=4326;POINT (19.8528793 39.5469849)"|""|""|"RENTALCAR"|"TRANSPORT"|"Sinarades Travel"|""|""|""|""|""|""|""|""|""|""|""|""|""|""|"1.0"
"http://slipo.eu/id/poi/46b0aaf5-116c-3ce9-b73e-ecf8888bfb9d"|"N4357368351"|"OpenStreetMap"|"19.7068302"|"39.6728789"|"SRID=4326;POINT (19.7068302 39.6728789)"|""|""|"RESTAURANT"|"EAT/DRINK"|"Alipa"|""|""|""|""|""|""|""|""|""|""|""|""|""|""|"1.0"
"http://slipo.eu/id/poi/9b0c0fa0-28d1-373e-b8c3-3c768d370abf"|"1709"|"GET"|"19.88191449205997"|"39.63220311275253"|"SRID=4326;MULTIPOINT ((19.88191449205997 39.63220311275253))"|""|""|"Public Services"|"PUBLIC SERVICE"|"2nd TAX SERVICE OF CORFU; Β ΔΟΥ Κέρκυρας"|""|"0"|""|""|""|""|""|""|""|""|""|""|""|""|""
"http://slipo.eu/id/poi/6d0bcc3e-1716-3e05-8445-0f3c972e080f"|"N336246111"|"OpenStreetMap"|"19.837897"|"39.6800271"|"SRID=4326;POINT (19.837897 39.6800271)"|""|""|"VILLAGE"|"SETTLEMENTS"|"Corfa Palma Beach"|""|""|""|""|""|""|""|""|""|""|""|""|""|""|"1.0"
"http://slipo.eu/id/poi/1d60db98-363a-3205-a396-629088cae5cc"|"N4230489633"|"OpenStreetMap"|"19.8441619"|"39.6525467"|"SRID=4326;POINT (19.8441619 39.6525467)"|""|""|"RESTAURANT"|"EAT/DRINK"|"Roberto e Fei"|""|""|""|""|""|""|""|""|""|""|""|""|""|""|"1.0"
"http://slipo.eu/id/poi/32b5f5b4-c55c-39bf-8347-5b24aae22d4b"|"2394"|"GET"|"19.899915502789828"|"39.60978737835655"|"SRID=4326;MULTIPOINT ((19.899915502789828 39.60978737835655))"|""|""|"Super Market"|"SHOP"|"SUPER MARKET; Super Market"|""|"0"|""|""|""|""|""|""|""|""|""|""|""|""|""
"http://slipo.eu/id/poi/2236137e-8240-3dda-8b89-113c4665662f"|"W304600668"|"OpenStreetMap"|"19.915234356048455"|"39.62302451376522"|"SRID=4326;MULTIPOLYGON (((19.915158 39.6234598, 19.9158098 39.6230321, 19.915842 39.6227863, 19.914855 39.6227243, 19.9148335 39.6228854, 19.9145545 39.6229619, 19.915158 39.6234598)))"|"304.9289335631092"|"5255.798212535644"|"UNIVERSITY"|"EDUCATION"|"Τμήμα Ιστορίας Ιονίου Πανεπιστημίου"|""|""|""|""|""|"Ιωάννου Θεοτόκη"|"72"|""|"Κέρκυρα"|""|""|""|""|""|"1.0"
"http://slipo.eu/id/poi/29e8fba8-a48a-3ccc-b155-6eb96265f6cf"|"2453"|"GET"|"19.926435399955537"|"39.61040587420612"|"SRID=4326;MULTIPOINT ((19.926435399955537 39.61040587420612))"|""|""|"Food"|"EAT/DRINK"|"Theotokis Family; Οικογένεια Θεοτόκη"|""|"2661045910"|""|"info@theotokis.com"|""|"Δάρη Αλκιβιάδη"|"69"|""|""|""|""|""|""|""|""
"http://slipo.eu/id/poi/df6757e9-d960-35ee-bb5c-1fa221076be2"|"2452"|"GET"|"19.92840270411966"|"39.62429913483332"|"SRID=4326;MULTIPOINT ((19.92840270411966 39.62429913483332))"|""|""|"Food"|"EAT/DRINK"|"Corfu Sailing Club; Εστιατόριο Ιστιοπλοϊκού Ομίλου"|""|"2661038763"|""|"corfusailingclub@yahoo.gr"|""|""|""|""|""|""|""|""|""|""|""
"http://slipo.eu/id/poi/f44041a2-e0cf-3607-a8da-44fbab1def86"|"N764418576"|"OpenStreetMap"|"19.8210585"|"39.5921907"|"SRID=4326;POINT (19.8210585 39.5921907)"|""|""|"RESTAURANT"|"EAT/DRINK"|"Jimmy's"|""|""|""|""|""|""|""|""|""|""|""|""|""|""|"1.0"
"http://slipo.eu/id/poi/fe8e1b2d-acb2-3fff-a92c-4136ce0424ed"|"N2919426991"|"OpenStreetMap"|"19.814692"|"39.7910085"|"SRID=4326;POINT (19.814692 39.7910085)"|""|""|"SHOES"|"SHOP"|"Sun's Daughter"|""|""|""|""|""|""|""|""|""|""|""|""|""|""|"1.0"
"http://slipo.eu/id/poi/9292caca-b163-3852-826b-7930fbb9a80c"|"1740"|"GET"|"19.920310635964995"|"39.78665330357801"|"SRID=4326;MULTIPOINT ((19.920310635964995 39.78665330357801))"|""|""|"Accommodation"|"ACCOMMODATION"|"Balaris Apartments; Balaris Apartments"|""|"2663081220"|"2663081108"|"info@balarisapartments.com"|"http://www.balarisapartments.com"|"Κασσιόπη"|""|"49081"|""|""|""|""|""|""|""
"http://slipo.eu/id/poi/b8e994b7-b595-3f16-841b-18839b91d6ae"|"N1771624490"|"OpenStreetMap"|"19.8539987"|"39.4998941"|"SRID=4326;POINT (19.8539987 39.4998941)"|""|""|"HAMLET"|"SETTLEMENTS"|"Σκάλα"|""|""|""|""|""|""|""|"49084"|""|""|""|""|""|""|"1.0"
"http://slipo.eu/id/poi/aed63a0b-cf05-34a6-945b-ed2f9c4a6b83"|"W428431898"|"OpenStreetMap"|"20.09378765893199"|"39.378890539891046"|"SRID=4326;MULTIPOLYGON (((20.0938408 39.3789257, 20.0938476 39.3789036, 20.0938556 39.378878, 20.0937543 39.378858, 20.0937349 39.3788542, 20.0937215 39.378905, 20.0938408 39.3789257)))"|"32.45673512781805"|"59.49906193983279"|"CAFE"|"EAT/DRINK"|"Bar Bella Vista"|""|""|""|""|""|""|""|""|""|""|""|""|""|""|"1.0"
"http://slipo.eu/id/poi/8aeef0b6-e6e5-3523-b408-296f831d4168"|"N5591653496"|"OpenStreetMap"|"19.7404628"|"39.6360206"|"SRID=4326;POINT (19.7404628 39.6360206)"|""|""|"BEACH"|"NATURAL ATTRACTION"|"Κόλλιας"|""|""|""|""|""|""|""|""|""|""|""|""|""|""|"1.0"
"http://slipo.eu/id/poi/cf7c58aa-e801-3e41-ab12-d0a76785c453"|"1685"|"GET"|"19.943541984220843"|"39.78248408537276"|"SRID=4326;MULTIPOINT ((19.943541984220843 39.78248408537276))"|""|""|"Tourism"|"TOURISM"|"Παραλία Άρια; ARIA BEACH"|""|"0"|""|""|""|""|""|""|""|""|""|""|""|""|""
"http://slipo.eu/id/poi/be4a681a-6888-3f71-a010-c41c480e2839"|"3561"|"GET"|"19.796267847369442"|"39.716848250069674"|"SRID=4326;MULTIPOINT ((19.796267847369442 39.716848250069674))"|""|""|"Gas Stations"|"AUTOMOTIVE"|"SHELL; SHELL"|""|"2663022989"|""|""|"http://www.coralenergy.gr"|""|""|""|""|""|""|""|""|""|""
"http://slipo.eu/id/poi/ba456453-5611-3450-b6e4-77053fc9f44a"|"2529"|"GET"|"19.98691127470542"|"39.44972654506161"|"SRID=4326;MULTIPOINT ((19.98691127470542 39.44972654506161))"|""|""|"Accommodation"|"ACCOMMODATION"|"Regina; Regina"|""|"2661052132"|"2661052135"|"reggina@otenet.gr"|"http://www.regina-hotel.de"|""|""|"49080"|""|""|""|""|""|""|""
"http://slipo.eu/id/poi/15cfc451-0133-3ab2-adc5-973918b79219"|"2430"|"GET"|"19.916398639943303"|"39.61983950788974"|"SRID=4326;MULTIPOINT ((19.916398639943303 39.61983950788974))"|""|""|"Chain stores"|"SHOP"|"Wind; Wind"|""|"2661081601"|"2661081602"|""|""|"Μητροπολίτου Μεθοδίου 14 & Πλατείας Φρονίμου"|""|"49100"|""|""|""|""|""|""|""
"http://slipo.eu/id/poi/c107c171-b70a-3188-94e8-05b02d36972b"|"2444"|"GET"|"19.921424966995755"|"39.62251119615301"|"SRID=4326;MULTIPOINT ((19.921424966995755 39.62251119615301))"|""|""|"Accommodation"|"ACCOMMODATION"|"Siorra Vittoria; Siorra Vittoria"|""|"2661036300"|"2661040777"|"info@SiorraVittoria.com"|"http://www.siorravittoria.com"|"Παδοβά Στεφάνου"|"36"|"49100"|""|""|""|""|""|""|""
"http://slipo.eu/id/poi/ff403fc9-bae3-31eb-a8ea-a83f61668dcb"|"2462"|"GET"|"19.92268875552458"|"39.62170712722437"|"SRID=4326;MULTIPOINT ((19.92268875552458 39.62170712722437))"|""|""|"Food"|"EAT/DRINK"|"Del Sole; Del Sole"|""|"2661032411"|""|""|""|"Γκίλφορδ"|"17"|""|""|""|""|""|""|""|""
"http://slipo.eu/id/poi/c7afee4a-6948-3b75-988f-dcfa34769310"|"N2296363685"|"OpenStreetMap"|"19.9251858"|"39.6270758"|"SRID=4326;POINT (19.9251858 39.6270758)"|""|""|"RESTAURANT"|"EAT/DRINK"|"Faliraki"|""|""|""|""|""|""|""|""|""|""|""|""|""|""|"1.0"
"http://slipo.eu/id/poi/09b37f89-4960-37be-ad57-6b2e4c5befa6"|"3497"|"GET"|"19.743582243128472"|"39.674247772259676"|"SRID=4326;MULTIPOINT ((19.743582243128472 39.674247772259676))"|""|""|"Health"|"HEALTH"|"Pharmacy; Φαρμακείο"|""|"2663041592"|""|""|""|""|"0"|"49083"|""|""|""|""|""|""|""
"http://slipo.eu/id/poi/f17a42b8-32c1-37f2-b3b1-a71e96ebfa65"|"W471636233"|"OpenStreetMap"|"19.661644811050714"|"39.743005564240555"|"SRID=4326;MULTIPOLYGON (((19.6614719 39.7429906, 19.6615142 39.742903, 19.66161 39.7429303, 19.6616059 39.7429389, 19.6617177 39.742971, 19.6617123 39.7429822, 19.6618123 39.7430108, 19.6617645 39.7431096, 19.6616493 39.7430767, 19.6616567 39.7430615, 19.6615651 39.7430353, 19.6615727 39.7430194, 19.6614719 39.7429906)))"|"84.33004428377535"|"314.4158633491889"|"DEPARTMENTSTORE"|"SHOP"|"hardware"|""|""|""|""|""|""|""|""|""|""|""|""|""|""|"1.0"
"http://slipo.eu/id/poi/5bae17c5-824c-3834-95c9-a519e1f69084"|"W136843282"|"OpenStreetMap"|"19.396462606239627"|"39.85650100637948"|"SRID=4326;MULTIPOLYGON (((19.396007 39.860913, 19.397344 39.860436, 19.3985425 39.8603098, 19.3996068 39.8601243, 19.4007425 39.8600446, 19.4009464 39.8599388, 19.401349 39.859588, 19.401578 39.858704, 19.402126 39.857649, 19.402445 39.856952, 19.402468 39.856611, 19.401802 39.856375, 19.400942 39.856498, 19.400431 39.857003, 19.399179 39.857374, 19.398443 39.857161, 19.398119 39.856911, 19.397938 39.856563, 19.398125 39.855808, 19.398743 39.855229, 19.399528 39.854708, 19.400094 39.854389, 19.400522 39.854117, 19.400634 39.853964, 19.400614 39.853753, 19.399817 39.853542, 19.397711 39.853818, 19.397182 39.853533, 19.396631 39.85309, 19.396063 39.852883, 19.395078 39.852791, 19.393744 39.85279, 19.392201 39.852861, 19.391117 39.853213, 19.3907921 39.8535208, 19.390398 39.853738, 19.390264 39.854207, 19.390665 39.854855, 19.391905 39.855748, 19.393496 39.856497, 19.394172 39.85713, 19.394528 39.857935, 19.394486 39.858566, 19.394251 39.859004, 19.394221 39.859451, 19.394653 39.860007, 19.395315 39.86011, 19.395646 39.860254, 19.395832 39.860524, 19.396007 39.860913)))"|"3705.725791327076"|"508739.94289636996"|"CONIFEROUSDECIDUOUS"|"LANDUSE"|"Φύκι"|""|""|""|""|""|""|""|""|""|""|""|""|""|""|"1.0"
"http://slipo.eu/id/poi/b9c59e23-5978-36a3-bb72-c7950f2fde69"|"2060"|"GET"|"19.74079037200018"|"39.690627769893226"|"SRID=4326;MULTIPOINT ((19.74079037200018 39.690627769893226))"|""|""|"Sport"|"SPORT"|"SPORTS GROUND; Αθλητικός Χώρος"|""|"0"|""|""|""|""|""|""|""|""|""|""|""|""|""
"http://slipo.eu/id/poi/b2b48666-8542-3301-ba7f-32c0b412a008"|"4024"|"GET"|"19.898508941963716"|"39.623203510290224"|"SRID=4326;MULTIPOINT ((19.898508941963716 39.623203510290224))"|""|""|"Banks"|"BUSINESS"|"Piraeus Bank - Kerkira; Τράπεζας Πειραιώς - Κέρκυρα"|""|"2661081540"|"2661040561"|""|"http://www.piraeusbank.gr"|"Κέρκυρας - Παλαιοκαστρίτσας"|""|"49100"|""|""|""|""|""|""|""
"http://slipo.eu/id/poi/32856662-0425-3bd3-bf6f-7828c1d17ede"|"N252947195"|"OpenStreetMap"|"19.7891967"|"39.788989"|"SRID=4326;POINT (19.7891967 39.788989)"|""|""|"VILLAGE"|"SETTLEMENTS"|"Ρόδα"|""|""|""|""|""|""|""|"49081"|""|""|""|""|""|""|"1.0"
"http://slipo.eu/id/poi/031fd81a-9c9b-32b5-8ed7-e9998d0daac9"|"N3546998298"|"OpenStreetMap"|"19.9177714"|"39.5925094"|"SRID=4326;POINT (19.9177714 39.5925094)"|""|""|"RESTAURANT"|"EAT/DRINK"|"Captain George"|""|"+30 694 820 8208"|""|"mitropouloua@yahoo.com"|""|"Nafsikas"|"41"|""|"Κανονι"|""|"Mo-Su 12:00-24:00"|""|""|""|"1.0"
"http://slipo.eu/id/poi/37a4d7b0-cf0f-3e78-a956-f3cb090d4e27"|"W471122609"|"OpenStreetMap"|"19.652014368209436"|"39.7435682234011"|"SRID=4326;MULTIPOLYGON (((19.6519456 39.7436375, 19.6519698 39.7434894, 19.6520758 39.7434996, 19.6520704 39.7435328, 19.652085 39.7435342, 19.6520726 39.74361, 19.6520542 39.7436082, 19.6520478 39.7436474, 19.6519456 39.7436375)))"|"53.98097732723403"|"160.98037868085348"|"DOCTORS"|"HEALTH"|"Dr I. Papadopoulos"|""|""|""|""|""|"Arillas"|""|""|""|""|"27/4"|""|""|""|"1.0"
"http://slipo.eu/id/poi/3ebd3c56-948d-30d5-a384-8b64132cb117"|"N4333581393"|"OpenStreetMap"|"19.7188686"|"39.722871"|"SRID=4326;POINT (19.7188686 39.722871)"|""|""|"HOSPITAL"|"HEALTH"|"Health Care Center (Government)"|""|""|""|""|""|""|""|""|""|""|""|""|""|""|"1.0"
"http://slipo.eu/id/poi/1c2fbe36-d901-39a5-b5b3-3e539a72710d"|"1668"|"GET"|"19.940736990130475"|"39.75394711867209"|"SRID=4326;MULTIPOINT ((19.940736990130475 39.75394711867209))"|""|""|"Tourism"|"TOURISM"|"KERASSIA BEACH; Παραλία Κερασιά"|""|"0"|""|""|""|""|""|""|""|""|""|""|""|""|""
"http://slipo.eu/id/poi/4bcd1fe1-d3d4-3f5c-85ba-f20c72a28576"|"W364816601"|"OpenStreetMap"|"19.92840091124623"|"39.483427918871264"|"SRID=4326;MULTIPOLYGON (((19.9284807 39.4838003, 19.9285296 39.483756, 19.9286138 39.4834775, 19.9286328 39.4834273, 19.9288534 39.4832013, 19.9287101 39.4830791, 19.9285197 39.4830229, 19.9281765 39.4832968, 19.9279983 39.483509, 19.9279765 39.4835701, 19.92799 39.4836154, 19.9282046 39.4837784, 19.9283085 39.4837986, 19.9284807 39.4838003)))"|"243.8678751398084"|"3597.393445547396"|"HOTEL"|"ACCOMMODATION"|"Prassino Nissi"|""|""|""|""|""|""|""|""|""|""|""|""|""|""|"1.0"
"http://slipo.eu/id/poi/21933134-6037-38cc-b204-a5e9f4ba8941"|"N1421017191"|"OpenStreetMap"|"19.8817526"|"39.4792729"|"SRID=4326;POINT (19.8817526 39.4792729)"|""|""|"ARCHAELOGICAL"|"TOURISM"|"Gardikiou Grava"|""|""|""|""|""|""|""|""|""|""|""|""|""|""|"1.0"
"http://slipo.eu/id/poi/9b898b93-3edf-37de-a3b6-59552a01ce75"|"2583"|"GET"|"19.77894388563312"|"39.796933658526584"|"SRID=4326;MULTIPOINT ((19.77894388563312 39.796933658526584))"|""|""|"Accommodation"|"ACCOMMODATION"|"Milton; Milton"|""|"2663064805"|"2663090264"|"infomilton@hotelmilton.net"|"http://www.hotelmilton.net"|""|""|"49081"|""|""|""|""|""|""|""
"http://slipo.eu/id/poi/b19b36ce-db69-3ae5-81c7-00974da48939"|"N2914616577"|"OpenStreetMap"|"19.9335163"|"39.4747944"|"SRID=4326;POINT (19.9335163 39.4747944)"|""|""|"HOTEL"|"ACCOMMODATION"|"Minore Apartments"|""|"+30-69724-44441"|""|""|"http://www.minore-studios.com/"|""|""|""|""|""|""|""|""|""|"1.0"
"http://slipo.eu/id/poi/9d62d26e-e874-35f1-b8ef-83882dcc685a"|"N5100424267"|"OpenStreetMap"|"19.7327251"|"39.6721899"|"SRID=4326;POINT (19.7327251 39.6721899)"|""|""|"RESTAURANT"|"EAT/DRINK"|"Arias Grill"|""|""|""|""|""|""|""|""|""|""|""|""|""|""|"1.0"
"http://slipo.eu/id/poi/3574f997-2965-30c5-96a9-5c125b543e36"|"N1773949890"|"OpenStreetMap"|"19.8227109"|"39.7756765"|"SRID=4326;POINT (19.8227109 39.7756765)"|""|""|"HAMLET"|"SETTLEMENTS"|"Λαζαράτικα"|""|""|""|""|""|""|""|"49100"|""|""|""|""|""|""|"1.0"
"http://slipo.eu/id/poi/77982dcb-2400-357c-9274-9617e0047ed5"|"3526"|"GET"|"20.057977310930923"|"39.412801606538416"|"SRID=4326;MULTIPOINT ((20.057977310930923 39.412801606538416))"|""|""|"Gas Stations"|"AUTOMOTIVE"|"JETOIL; JETOIL"|""|"0"|""|""|"http://www.jetoil.gr"|""|""|""|""|""|""|""|""|""|""
"http://slipo.eu/id/poi/fab050f8-55a6-3155-bc7a-f3fdee864cb5"|"3156"|"GET"|"19.92132842364677"|"39.62365069781659"|"SRID=4326;MULTIPOINT ((19.92132842364677 39.62365069781659))"|""|""|"Health"|"HEALTH"|"Φαρμακείο; Pharmacy"|""|"2661025378"|""|""|""|"Ευγενίου Βουλγάρεως"|"66"|"49100"|""|""|""|""|""|""|""
"http://slipo.eu/id/poi/8a74a40e-ee7e-3b07-b0be-fd1780296925"|"2441"|"GET"|"19.925736308798584"|"39.62339832965051"|"SRID=4326;MULTIPOINT ((19.925736308798584 39.62339832965051))"|""|""|"Café - bar"|"EAT/DRINK"|"Cafe Φρούριο; CAFE FROURIO"|""|"2661042279"|""|""|""|""|""|""|""|""|""|""|""|""|""
"http://slipo.eu/id/poi/08dd69a3-e21a-335f-9f9b-9536f6dd889f"|"2305"|"GET"|"19.91975874611881"|"39.6193363437148"|"SRID=4326;MULTIPOINT ((19.91975874611881 39.6193363437148))"|""|""|"Public Security"|"PUBLIC SERVICE"|"Αστυνομική Διεύθυνση Κέρκυρας; POLICE DIVISION OF CORFU"|""|"0"|""|""|"http://www.astynomia.gr"|"Λεωφόρος Αλεξάνδρας; LEOFOROS ALEXANDRAS"|"19"|"49100"|""|""|""|""|""|""|""
"http://slipo.eu/id/poi/aa9ba60c-bd20-3fdb-918d-768f2bd6234f"|"3532"|"GET"|"19.87455946877703"|"39.49814856060803"|"SRID=4326;MULTIPOINT ((19.87455946877703 39.49814856060803))"|""|""|"Gas Stations"|"AUTOMOTIVE"|"SHELL; SHELL"|""|"2661075074"|""|""|"http://www.coralenergy.gr"|""|""|""|""|""|""|""|""|""|""
"http://slipo.eu/id/poi/b4683619-07ca-3e3a-8c8a-6052fbde1ab9"|"N1980644181"|"OpenStreetMap"|"19.8362748"|"39.6849779"|"SRID=4326;POINT (19.8362748 39.6849779)"|""|""|"HOTEL"|"ACCOMMODATION"|"Victoria Hotel"|""|""|""|""|""|""|""|""|""|""|""|""|""|""|"1.0"
"http://slipo.eu/id/poi/03e1652c-009c-39f7-aa6d-4ead324cc779"|"N2100621485"|"OpenStreetMap"|"20.066492"|"39.3978529"|"SRID=4326;POINT (20.066492 39.3978529)"|""|""|"SCHOOL"|"EDUCATION"|"4ο Δημοτικό Σχολείο Λευκίμμης"|""|"+30 26620 23442"|""|""|""|""|""|""|""|""|""|""|""|""|"1.0"
"http://slipo.eu/id/poi/f7be8c9a-f68c-3469-bde9-256672f895d8"|"3178"|"GET"|"20.072633381898957"|"39.423135068159375"|"SRID=4326;MULTIPOINT ((20.072633381898957 39.423135068159375))"|""|""|"Health"|"HEALTH"|"Pharmacy; Φαρμακείο"|""|"2662022540"|""|""|""|""|"0"|"49080"|""|""|""|""|""|""|""
"http://slipo.eu/id/poi/73d27110-5fbb-3370-8018-694a51641d78"|"1590"|"GET"|"19.908739889691415"|"39.79116968709508"|"SRID=4326;MULTIPOINT ((19.908739889691415 39.79116968709508))"|""|""|"Sport"|"SPORT"|"Αθλητικός Χώρος; SPORTS GROUND"|""|"0"|""|""|""|""|""|""|""|""|""|""|""|""|""
"http://slipo.eu/id/poi/dcbb2920-76ba-3c8e-9a8d-bc521989f9a4"|"4163"|"GET"|"19.91788222328143"|"39.62292676656502"|"SRID=4326;MULTIPOINT ((19.91788222328143 39.62292676656502))"|""|""|"Super Market"|"SHOP"|"Dimitra - Markato; Δήμητρα - Μαρκάτο"|""|"2661046406"|""|""|"http://www.dimitramarkets.gr"|"Ανδρεάδη Ιουλίας"|"16"|"49100"|""|""|""|""|""|""|""
"http://slipo.eu/id/poi/29a2a3f2-b68c-3da2-b061-b118fb4e0b50"|"2188"|"GET"|"19.882561120467997"|"39.623378769750175"|"SRID=4326;MULTIPOINT ((19.882561120467997 39.623378769750175))"|""|""|"Education"|"EDUCATION"|"PRIMARY SCHOOL POTAMOU; Δημοτικό Ποταμού"|""|"0"|""|""|""|""|""|""|""|""|""|""|""|""|""
"http://slipo.eu/id/poi/535ffa4e-3acc-3829-b81d-a674beaa39dc"|"N534608002"|"OpenStreetMap"|"19.8626619"|"39.81514"|"SRID=4326;POINT (19.8626619 39.81514)"|""|""|"SUPERMARKET"|"SHOP"|"Super Market"|""|""|""|""|""|""|""|""|""|""|""|""|""|""|"1.0"
"http://slipo.eu/id/poi/30caaea1-2939-3935-a803-0bf06009e0af"|"W512011240"|"OpenStreetMap"|"19.76493735"|"39.7936962"|"SRID=4326;MULTIPOLYGON (((19.7651155 39.7936444, 19.7649591 39.7935508, 19.7647592 39.793748, 19.7649156 39.7938416, 19.7651155 39.7936444)))"|"89.47459866913212"|"470.9896744986077"|"HOTEL"|"ACCOMMODATION"|"Building C Rooms 701-721"|""|""|""|""|""|""|""|""|""|""|""|""|""|""|"1.0"
"http://slipo.eu/id/poi/15e59a78-285c-321e-aea6-abfc6905432b"|"N1987958795"|"OpenStreetMap"|"19.8375713"|"39.6850597"|"SRID=4326;POINT (19.8375713 39.6850597)"|""|""|"BUSSTOP"|"TRANSPORT"|"Dassia Terma"|""|""|""|""|""|""|""|""|""|""|""|""|""|""|"1.0"
"http://slipo.eu/id/poi/a44c18d9-6140-34d1-b735-c9395cb162e8"|"N4429210412"|"OpenStreetMap"|"19.8701329"|"39.7195999"|"SRID=4326;POINT (19.8701329 39.7195999)"|""|""|"RENTALCAR"|"TRANSPORT"|"Holiday Cars"|""|""|""|""|""|""|""|""|""|""|""|""|""|""|"1.0"
"http://slipo.eu/id/poi/6b1fd9a3-ae2a-308b-99c5-2c3df94d33fb"|"N859337904"|"OpenStreetMap"|"19.6651778"|"39.7232683"|"SRID=4326;POINT (19.6651778 39.7232683)"|""|""|"RESTAURANT"|"EAT/DRINK"|"Tavern Liangos"|""|""|""|""|""|""|""|""|""|""|""|""|""|""|"1.0"
"http://slipo.eu/id/poi/a36f79c7-c844-3282-85e6-20cc8cc1a813"|"W428783715"|"OpenStreetMap"|"19.952986330068356"|"39.426670651998535"|"SRID=4326;MULTIPOLYGON (((19.9528405 39.4266489, 19.9531027 39.4265994, 19.9531322 39.4266924, 19.9528699 39.4267419, 19.9528405 39.4266489)))"|"67.72340722346316"|"246.9376740928588"|"HOTEL"|"ACCOMMODATION"|"Gongis Studios"|""|""|""|""|""|""|""|""|""|""|""|""|""|""|"1.0"
"http://slipo.eu/id/poi/6ba22740-8eb2-3834-be96-7745ff5010fc"|"2144"|"GET"|"19.918714748840184"|"39.621385842117164"|"SRID=4326;MULTIPOINT ((19.918714748840184 39.621385842117164))"|""|""|"Public Services"|"PUBLIC SERVICE"|"CONSULATE OF BELGIUM; Προξενείο Βελγίου"|""|"2661033768"|""|""|""|"ALEXANDRAS; Αλεξανδρας"|"44"|""|""|""|""|""|""|""|""
"http://slipo.eu/id/poi/13b299f9-ca69-3ff8-8e15-8010c2380f12"|"N5102976621"|"OpenStreetMap"|"19.8574885"|"39.6509355"|"SRID=4326;POINT (19.8574885 39.6509355)"|""|""|"RESTAURANT"|"EAT/DRINK"|"Roula"|""|""|""|""|""|""|""|""|""|""|""|""|""|""|"1.0"
"http://slipo.eu/id/poi/b924b7b3-edf3-309c-916b-d67e68ac5ad1"|"N5100544447"|"OpenStreetMap"|"19.920909"|"39.6232402"|"SRID=4326;POINT (19.920909 39.6232402)"|""|""|"MEMORIAL"|"TOURISM"|"Άγαλμα Κώστα Γεωργάκη"|""|""|""|""|""|""|""|""|""|""|""|""|""|""|"1.0"
"http://slipo.eu/id/poi/ebb59768-403d-3f70-9142-fac1bb06e360"|"2438"|"GET"|"19.91780081280626"|"39.62461588225568"|"SRID=4326;MULTIPOINT ((19.91780081280626 39.62461588225568))"|""|""|"Café - bar"|"EAT/DRINK"|"STABLUS CAFE - RESTAURANT; Stablus Cafe - Restaurant"|""|"0"|""|""|""|""|""|""|""|""|""|""|""|""|""
"http://slipo.eu/id/poi/6f339ac9-e14e-3691-89fc-f9653ed8b14d"|"3488"|"GET"|"19.92814579644786"|"39.47760799280884"|"SRID=4326;MULTIPOINT ((19.92814579644786 39.47760799280884))"|""|""|"Health"|"HEALTH"|"Pharmacy; Φαρμακείο"|""|"2661076256"|""|""|""|""|"0"|"49080"|""|""|""|""|""|""|""
"http://slipo.eu/id/poi/50f9028e-e3ad-3b6d-bcae-d497b112d1e6"|"N3688981258"|"OpenStreetMap"|"19.9270699"|"39.4856304"|"SRID=4326;POINT (19.9270699 39.4856304)"|""|""|"RESTAURANT"|"EAT/DRINK"|"Firefly Taverna"|""|""|""|""|""|""|""|""|""|""|""|""|""|""|"1.0"
"http://slipo.eu/id/poi/14e109bd-91bf-32b8-952c-b5cdaf1d1c43"|"N2457650972"|"OpenStreetMap"|"19.9993511"|"39.4532631"|"SRID=4326;POINT (19.9993511 39.4532631)"|""|""|"SUPERMARKET"|"SHOP"|"Center Market"|""|""|""|""|""|""|""|""|""|""|""|""|""|""|"1.0"
"http://slipo.eu/id/poi/39828cbb-91f2-3643-872e-fc509321457c"|"N1363420042"|"OpenStreetMap"|"19.7084194"|"39.7832216"|"SRID=4326;POINT (19.7084194 39.7832216)"|""|""|"SUPERMARKET"|"SHOP"|"Marketo"|""|""|""|""|""|""|""|""|""|""|""|""|""|""|"1.0"
"http://slipo.eu/id/poi/5f98ac81-0554-327d-90f9-9ab79ea9f501"|"1656"|"GET"|"19.84338925171657"|"39.66662513059489"|"SRID=4326;MULTIPOINT ((19.84338925171657 39.66662513059489))"|""|""|"Accommodation"|"ACCOMMODATION"|"ANIS; Anis"|""|"0"|""|""|""|""|""|""|""|""|""|""|""|""|""
"http://slipo.eu/id/poi/7ede8556-63ae-3790-a75a-a74a0c40955c"|"3201"|"GET"|"19.914879002411705"|"39.62365939075155"|"SRID=4326;MULTIPOINT ((19.914879002411705 39.62365939075155))"|""|""|"Health"|"HEALTH"|"Φαρμακείο; Pharmacy"|""|"2661035177"|""|""|""|"Θεοτόκη Ιωάννη"|"72"|"49100"|""|""|""|""|""|""|""
"http://slipo.eu/id/poi/d0655e07-202b-3d5c-81ea-ae8565fa19e1"|"W238217596"|"OpenStreetMap"|"19.91785509290884"|"39.58613125593524"|"SRID=4326;MULTIPOLYGON (((19.9179003 39.5861161, 19.9178844 39.5861007, 19.9178606 39.5860935, 19.9178354 39.5860964, 19.9178154 39.5861087, 19.9178061 39.586127, 19.9178099 39.5861465, 19.9178258 39.5861618, 19.9178495 39.586169, 19.9178748 39.5861661, 19.9178947 39.5861539, 19.9179041 39.5861356, 19.9179003 39.5861161)))"|"26.25340847704733"|"53.58883461652032"|"CHRISTIAN"|"RELIGIOUS"|"Ποντικονήσι"|""|""|""|""|""|""|""|""|""|""|""|""|"https://upload.wikimedia.org/wikipedia/commons/4/44/Pontikonisi.jpg"|""|"1.0"
"http://slipo.eu/id/poi/9698420f-0206-352b-8dab-135afd8fcfba"|"W343036040"|"OpenStreetMap"|"19.804063470654338"|"39.65111204394136"|"SRID=4326;MULTIPOLYGON (((19.8080981 39.6512196, 19.8076341 39.6507238, 19.8072264 39.6506412, 19.8068509 39.6506825, 19.8066792 39.6506329, 19.8065183 39.650286, 19.8063037 39.6500299, 19.8059497 39.6497655, 19.8057995 39.6494434, 19.8050592 39.649716, 19.8048124 39.6499555, 19.8048875 39.650286, 19.8048339 39.650509, 19.8047159 39.650509, 19.8043725 39.6501621, 19.8042116 39.6499555, 19.8039863 39.6490799, 19.8036966 39.6488238, 19.8029241 39.6489395, 19.8022804 39.6494186, 19.8021946 39.6492947, 19.8021195 39.648989, 19.8021302 39.6486173, 19.8018191 39.6485429, 19.8013148 39.6485429, 19.8010479 39.6492105, 19.8009386 39.6495828, 19.8007676 39.6499803, 19.8012397 39.6508394, 19.8013148 39.6511533, 19.8015401 39.6516655, 19.801744 39.6519381, 19.8019693 39.6520703, 19.8015723 39.6530698, 19.8018083 39.6530863, 19.8020229 39.6531689, 19.802495 39.6530945, 19.8027418 39.6530202, 19.8031709 39.6531359, 19.8038897 39.6531111, 19.8043725 39.6532598, 19.8049841 39.6530367, 19.8060033 39.6526402, 19.8069796 39.6524255, 19.807441 39.6522933, 19.8078809 39.652062, 19.8081384 39.6513929, 19.8080981 39.6512196)))"|"2222.192134220041"|"203738.96651698207"|"CRANE"|"SPORT"|"ΧΥΤΑ ΚΕΡΚΥΡΑΣ"|""|""|""|""|""|""|""|""|""|""|""|""|""|""|"1.0"
"http://slipo.eu/id/poi/77a0a5ad-38f6-3836-a7b6-3b8f3354de75"|"2071"|"GET"|"19.923398935815705"|"39.60818292975328"|"SRID=4326;MULTIPOINT ((19.923398935815705 39.60818292975328))"|""|""|"Religion"|"RELIGIOUS"|"AGIA EFFIMIA; Αγία Ευφημία"|""|"0"|""|""|""|""|""|""|""|""|""|""|""|""|""
"http://slipo.eu/id/poi/a4b0875b-7f71-31ee-abc3-3d1936dbb208"|"W93260778"|"OpenStreetMap"|"19.836963990886396"|"39.81201995500887"|"SRID=4326;MULTIPOLYGON (((19.8369098 39.8120192, 19.836869 39.812085, 19.8368611 39.8120821, 19.8368479 39.8121134, 19.8369188 39.8121598, 19.8369517 39.8121152, 19.8369431 39.8121121, 19.836984 39.8120463, 19.837012 39.8120566, 19.8370857 39.8119379, 19.8369779 39.8118984, 19.8369042 39.8120171, 19.8369098 39.8120192)))"|"77.68839112754583"|"243.93016644783663"|"RESTAURANT"|"EAT/DRINK"|"Taverne Georges"|""|""|""|""|""|""|""|""|""|""|""|""|""|""|"1.0"
"http://slipo.eu/id/poi/ae9f770c-a26d-3fd5-b862-b128d1e9e32a"|"3585"|"GET"|"19.738526424781952"|"39.709134813445495"|"SRID=4326;MULTIPOINT ((19.738526424781952 39.709134813445495))"|""|""|"Gas Stations"|"AUTOMOTIVE"|"ELIN; ΕΛΙΝ"|""|"0"|""|""|"http://www.elin.gr"|"Καστελλάνοι"|""|"49083"|""|""|""|""|""|""|""
"http://slipo.eu/id/poi/20579f37-1e96-34f6-b244-8396e873e8d7"|"N1983913580"|"OpenStreetMap"|"19.8390445"|"39.6995065"|"SRID=4326;POINT (19.8390445 39.6995065)"|""|""|"HOTEL"|"ACCOMMODATION"|"Mega"|""|""|""|""|""|""|""|""|""|""|""|""|""|""|"1.0"
"http://slipo.eu/id/poi/7d90b6f9-f30c-3466-babe-576eacecad0f"|"1619"|"GET"|"19.884734818219666"|"39.79709329469345"|"SRID=4326;MULTIPOINT ((19.884734818219666 39.79709329469345))"|""|""|"Accommodation"|"ACCOMMODATION"|"Χρησμός; CHRISMOS"|""|"0"|""|""|""|""|""|""|""|""|""|""|""|""|""
"http://slipo.eu/id/poi/d0aaf735-5c9a-3f82-a5c0-52b5638b2dc1"|"2186"|"GET"|"19.90944712191408"|"39.62392228861507"|"SRID=4326;MULTIPOINT ((19.90944712191408 39.62392228861507))"|""|""|"Education"|"EDUCATION"|"ΙΕΚ Κέρκυρας; VOCATIONAL TRAINING INSTITUTE OF CORFU"|""|"0"|""|""|""|""|""|""|""|""|""|""|""|""|""
"http://slipo.eu/id/poi/59492408-cba8-34a5-9810-f17275744a33"|"N3566360354"|"OpenStreetMap"|"19.8205298"|"39.5840751"|"SRID=4326;POINT (19.8205298 39.5840751)"|""|""|"RESTAURANT"|"EAT/DRINK"|"naftis"|""|""|""|""|""|""|""|""|""|""|""|""|""|""|"1.0"
"http://slipo.eu/id/poi/c44ffa43-ce8d-3839-953b-9fa8dcf48755"|"2439"|"GET"|"19.9245038760513"|"39.62701774450333"|"SRID=4326;MULTIPOINT ((19.9245038760513 39.62701774450333))"|""|""|"Café - bar"|"EAT/DRINK"|"Cafe Εν Πλω; CAFE EN PLO"|""|"0"|""|""|""|""|""|""|""|""|""|""|""|""|""
"http://slipo.eu/id/poi/76b469f5-3a83-3e95-8370-8d09fa40856d"|"W243837170"|"OpenStreetMap"|"19.801082901427307"|"39.61711949668705"|"SRID=4326;MULTIPOLYGON (((19.7976029 39.6126085, 19.8007318 39.614249, 19.8046546 39.616537, 19.8074659 39.6179903, 19.8077928 39.6183861, 19.8076808 39.6186235, 19.8052524 39.6217099, 19.8048321 39.6215301, 19.80104 39.6196379, 19.7983314 39.6183717, 19.7965475 39.6175227, 19.7960992 39.6172565, 19.794997 39.6165226, 19.7950531 39.6161269, 19.7950531 39.615688, 19.7956059 39.6152982, 19.7950873 39.6147287, 19.7948617 39.6144734, 19.7976029 39.6126085)))"|"3153.4760209500064"|"530687.0621305249"|"GOLF"|"SPORT"|"Corfu Golf Club"|"18 hole Par 72"|"+30 26610 94220"|""|"info@corfugolfclub.com"|"http://www.corfugolfclub.com"|"Ropa Valey"|""|"491 00"|"Corfu"|"GR"|""|""|""|""|"1.0"
"http://slipo.eu/id/poi/c57dec89-4e53-3877-afc0-7f7b4e14acee"|"N4226447799"|"OpenStreetMap"|"19.7175206"|"39.7538373"|"SRID=4326;POINT (19.7175206 39.7538373)"|""|""|"BUSSTOP"|"TRANSPORT"|"Velonades Bus Stop"|""|""|""|""|""|""|""|""|""|""|""|""|""|""|"1.0"
"http://slipo.eu/id/poi/e54aa20a-d18e-37c8-8827-cdf6391a863d"|"N2420705720"|"OpenStreetMap"|"20.0709474"|"39.4108214"|"SRID=4326;POINT (20.0709474 39.4108214)"|""|""|"PHONE"|"SHOP"|"Γερμανός"|""|""|""|""|"http://www.e-germanos.gr"|""|""|""|""|""|""|""|""|""|"1.0"
"http://slipo.eu/id/poi/21486b32-503b-3f4f-aeda-0ab173d2b108"|"3911"|"GET"|"20.06402020384056"|"39.42309089545511"|"SRID=4326;MULTIPOINT ((20.06402020384056 39.42309089545511))"|""|""|"ATM"|"BUSINESS"|"National Bank - Lefkimmis; Εθνική Τράπεζα - Λευκιμμης"|""|"0"|""|""|"http://www.nbg.gr"|"Ριγγλαδες Λευκιμμης"|""|"49080"|""|""|""|""|""|""|""
"http://slipo.eu/id/poi/5afea348-b217-37c6-b04f-0a23848e248a"|"3478"|"GET"|"19.797080851127337"|"39.692263681092896"|"SRID=4326;MULTIPOINT ((19.797080851127337 39.692263681092896))"|""|""|"Health"|"HEALTH"|"Pharmacy; Φαρμακείο"|""|"2663022666"|""|""|""|""|"0"|"49083"|""|""|""|""|""|""|""
"http://slipo.eu/id/poi/2af206a7-f38d-3b59-9beb-7540f6bb5a76"|"2166"|"GET"|"19.91978255715717"|"39.60744534197318"|"SRID=4326;MULTIPOINT ((19.91978255715717 39.60744534197318))"|""|""|"Education"|"EDUCATION"|"7ο Γυμνάσιο Κέρκυρας; 7th SECONDARY SCHOOL OF CORFU"|""|"0"|""|""|""|""|""|""|""|""|""|""|""|""|""
"http://slipo.eu/id/poi/987c641c-709e-3cae-a90d-2eeeefddebd9"|"W367875129"|"OpenStreetMap"|"19.68070375"|"39.7186778"|"SRID=4326;MULTIPOLYGON (((19.6806259 39.718749, 19.6807476 39.7187645, 19.6807816 39.7186066, 19.6806599 39.7185911, 19.6806259 39.718749)))"|"56.682572552602494"|"187.86643037186073"|"RENTALCAR"|"TRANSPORT"|"Front Runners Rent a Bike"|""|""|""|""|""|""|""|""|""|""|""|""|""|""|"1.0"
"http://slipo.eu/id/poi/b11bbf3f-c252-3e48-9ea8-45695a16ae74"|"2368"|"GET"|"20.11485373370227"|"39.38582022183878"|"SRID=4326;MULTIPOINT ((20.11485373370227 39.38582022183878))"|""|""|"Tourism"|"TOURISM"|"KAVOS BEACH; Παραλία Κάβος"|""|"0"|""|""|""|""|""|""|""|""|""|""|""|""|""
"http://slipo.eu/id/poi/d6774075-9044-3c1c-a65b-ea27784c2b69"|"W122781680"|"OpenStreetMap"|"19.652589716753447"|"39.7473668130464"|"SRID=4326;MULTIPOLYGON (((19.6471078 39.7449563, 19.6463355 39.745617, 19.6457481 39.7464388, 19.6442032 39.7475576, 19.6440094 39.74885, 19.6469576 39.7489284, 19.6471468 39.7492795, 19.6485617 39.749765, 19.6502826 39.7497112, 19.6516684 39.7507683, 19.652768 39.7521241, 19.653978 39.75229, 19.656238 39.752207, 19.6583035 39.7524502, 19.6599075 39.7517272, 19.6590277 39.7493763, 19.6587395 39.748947, 19.6585898 39.7487226, 19.6580339 39.7479534, 19.6578885 39.7463432, 19.6574089 39.7461137, 19.6575294 39.7454049, 19.6572856 39.7440624, 19.6563383 39.7438797, 19.6553691 39.7438851, 19.6552835 39.7427959, 19.6545057 39.7428577, 19.6533283 39.7428096, 19.652921 39.7423878, 19.6515276 39.7420701, 19.6508257 39.7421581, 19.6503134 39.7421646, 19.6500742 39.7421493, 19.649183 39.7422675, 19.649103 39.7422671, 19.6490552 39.7422742, 19.648832 39.7425291, 19.648601 39.7429758, 19.6484454 39.7432606, 19.6482656 39.7435369, 19.647869 39.7440953, 19.6471078 39.7449563)))"|"4189.710457416502"|"948782.0877269497"|"VILLAGE"|"SETTLEMENTS"|"Arillas Magouladon"|""|""|""|""|""|""|""|""|""|""|""|""|""|""|"1.0"
"http://slipo.eu/id/poi/aa442499-cd32-3f8f-840c-53affc613234"|"W128635312"|"OpenStreetMap"|"19.95677089718946"|"39.45732542678482"|"SRID=4326;MULTIPOLYGON (((19.9566951 39.4573612, 19.9568525 39.4573525, 19.9568466 39.4572896, 19.9566893 39.4572984, 19.9566951 39.4573612)))"|"41.1342195319487"|"94.92970434608198"|"CHRISTIAN"|"RELIGIOUS"|"Taxiárchis"|""|""|""|""|""|""|""|""|""|""|""|""|""|""|"1.0"
"http://slipo.eu/id/poi/0c1427ec-4e30-3344-883f-bcebd803db7b"|"N4210976301"|"OpenStreetMap"|"19.9215138"|"39.7903317"|"SRID=4326;POINT (19.9215138 39.7903317)"|""|""|"RESTAURANT"|"EAT/DRINK"|"Thraka - Grill House"|""|""|""|""|""|""|""|""|""|""|""|""|""|""|"1.0"
"http://slipo.eu/id/poi/baedef49-a6e3-3771-9db2-cae3bbd8c135"|"N1426478380"|"OpenStreetMap"|"19.8209548"|"39.5939365"|"SRID=4326;POINT (19.8209548 39.5939365)"|""|""|"RESTAURANT"|"EAT/DRINK"|"Sunset"|""|""|""|""|""|""|""|""|""|""|""|""|""|""|"1.0"
"http://slipo.eu/id/poi/5022410f-23b1-32b3-ba3a-1aada1f880b0"|"3163"|"GET"|"19.919244077401363"|"39.622572602536934"|"SRID=4326;MULTIPOINT ((19.919244077401363 39.622572602536934))"|""|""|"Health"|"HEALTH"|"Φαρμακείο; Pharmacy"|""|"2661032080"|""|""|""|"Σαμαρά"|"16"|"49100"|""|""|""|""|""|""|""
"http://slipo.eu/id/poi/9a31b4e3-29ae-3c6f-a0bf-f98820259cc4"|"N4208040515"|"OpenStreetMap"|"19.9064166"|"39.5329877"|"SRID=4326;POINT (19.9064166 39.5329877)"|""|""|"HOSTEL"|"ACCOMMODATION"|"Kostas"|""|""|""|""|""|""|""|""|""|""|""|""|""|""|"1.0"
"http://slipo.eu/id/poi/4b2d3324-cb19-3cfd-aa99-fcaa9422db76"|"N1773898914"|"OpenStreetMap"|"19.6810729"|"39.7464234"|"SRID=4326;POINT (19.6810729 39.7464234)"|""|""|"VILLAGE"|"SETTLEMENTS"|"Kavadades; Καββαδάδες"|""|""|""|""|""|""|""|"49081"|""|""|""|""|""|""|"1.0"
"http://slipo.eu/id/poi/6fec436c-b0e7-3b8b-a2ee-0af4392bdd48"|"N5557684339"|"OpenStreetMap"|"19.8658319"|"39.8152956"|"SRID=4326;POINT (19.8658319 39.8152956)"|""|""|"RESTAURANT"|"EAT/DRINK"|"Pyramid City Restaurant & Bar"|""|""|""|""|"http://www.pyramidcitycorfu.com"|"Agios Spyridon, Perithia"|""|"49081"|"Corfu"|""|""|""|""|""|"1.0"
"http://slipo.eu/id/poi/797679d2-0ffd-3fa4-8222-0978b4b2f191"|"2455"|"GET"|"19.92334258901052"|"39.62303877440309"|"SRID=4326;MULTIPOLYGON (((19.9242518 39.6252294, 19.9250994 39.625031, 19.9254292 39.6233256, 19.9251638 39.6223732, 19.9248876 39.6217297, 19.9243014 39.6212709, 19.9238789 39.6212865, 19.9236866 39.6222395, 19.9235887 39.6227508, 19.9235973 39.6232212, 19.9237324 39.62364, 19.9242518 39.6252294)))"|""|""|"Food"|"EAT/DRINK"|"Σπινιάδα; Spianada"|""|"2661039066"|""|"spianada@hotmail.com"|""|"Καποδιστρίου"|"34"|""|""|""|""|""|""|"0.9536284"|"{scoreA: 1.0, scoreB: 1.0, score: 0.1904762}"
"http://slipo.eu/id/poi/d372f8bb-a108-3973-b297-2958f15906d1"|"1726"|"GET"|"19.842411303542914"|"39.656445192146926"|"SRID=4326;MULTIPOINT ((19.842411303542914 39.656445192146926))"|""|""|"Accommodation"|"ACCOMMODATION"|"Louis Corcyra Beach; Louis Corcyra Beach"|""|"2661090196"|"2661091591"|"corcyra@louishotels.com"|"http://www.louishotels.com"|"Γουβιά"|""|"49100"|""|""|""|""|""|""|""
"http://slipo.eu/id/poi/c8779978-2b77-3207-811c-9ba182a0661a"|"2311"|"GET"|"19.91791845624449"|"39.62000686507055"|"SRID=4326;MULTIPOINT ((19.91791845624449 39.62000686507055))"|""|""|"Public Security"|"PUBLIC SERVICE"|"Διοίκηση Πυροσβεστικών Υπηρεσιών Κέρκυρας; FIRE SERVICES ADMINISTRATION OF CORFU"|""|"2661024261"|"2661039533"|""|"http://www.fireservice.gr"|"ZAFIROPOULOU PANOU  & MARASLI GRIGORIOU; Ζαφειρόπουλου Πάνου  & Μαρασλή Γρηγορίου"|""|"49100"|""|""|""|""|""|""|""
"http://slipo.eu/id/poi/a90fbaf9-65f9-30b5-8484-a76a96079200"|"N2297971111"|"OpenStreetMap"|"19.8806358"|"39.4913518"|"SRID=4326;POINT (19.8806358 39.4913518)"|""|""|"CAFE"|"EAT/DRINK"|"Internet Cafe"|""|""|""|""|""|""|""|""|""|""|""|""|""|""|"1.0"
"http://slipo.eu/id/poi/f93daab8-2ae1-35b9-806d-62a73fa4e31f"|"N2918019885"|"OpenStreetMap"|"19.9248345"|"39.4812411"|"SRID=4326;POINT (19.9248345 39.4812411)"|""|""|"BAR"|"EAT/DRINK"|"Natasha"|""|""|""|""|""|""|""|""|""|""|"24/7"|""|""|""|"1.0"
"http://slipo.eu/id/poi/86227730-7167-30e5-8129-4f663275843a"|"N489883634"|"OpenStreetMap"|"19.8378934"|"39.7441223"|"SRID=4326;POINT (19.8378934 39.7441223)"|""|""|"HAMLET"|"SETTLEMENTS"|"Στρινύλας"|""|""|""|""|""|""|""|"49100"|""|""|""|""|""|""|"1.0"
"http://slipo.eu/id/poi/698a0893-c7e0-3d6f-9248-71c13b56b464"|"N1088014445"|"OpenStreetMap"|"20.0964796"|"39.4074531"|"SRID=4326;POINT (20.0964796 39.4074531)"|""|""|"BAR"|"EAT/DRINK"|"Sunrise Bar"|""|""|""|""|""|""|""|""|""|""|""|""|""|""|"1.0"
"http://slipo.eu/id/poi/cd272203-7010-3157-acf1-3f60591a1b33"|"N1425859534"|"OpenStreetMap"|"19.9251749"|"39.6256013"|"SRID=4326;POINT (19.9251749 39.6256013)"|""|""|"CAFE"|"EAT/DRINK"|"Art Cafe"|""|""|""|""|""|""|""|""|""|""|""|""|""|""|"1.0"
"http://slipo.eu/id/poi/e5048948-99c5-3b00-95e2-c426600da81c"|"N1771624466"|"OpenStreetMap"|"19.8989539"|"39.5389313"|"SRID=4326;POINT (19.8989539 39.5389313)"|""|""|"HAMLET"|"SETTLEMENTS"|"Μακράτα"|""|""|""|""|""|""|""|"49084"|""|""|""|""|""|""|"1.0"
"http://slipo.eu/id/poi/8f703c95-c2b2-3a4c-9147-a5d93d3e3c7c"|"N1401213193"|"OpenStreetMap"|"19.841531"|"39.65173"|"SRID=4326;POINT (19.841531 39.65173)"|""|""|"SUPERMARKET"|"SHOP"|"Diellas"|""|""|""|""|""|""|""|""|""|""|""|""|""|""|"1.0"
"http://slipo.eu/id/poi/4e7ce460-f005-3a36-b6ce-45af8f6ed314"|"N4975523523"|"OpenStreetMap"|"19.684427"|"39.718119"|"SRID=4326;POINT (19.684427 39.718119)"|""|""|"HOTEL"|"ACCOMMODATION"|"Honigtal Korfu"|"Das original Honigtal auf Korfu von ReNatour ist ein beliebtes Familienhotel für Familien mit Kindern"|""|""|""|"http://www.honigtal-auf-korfu.de/"|""|""|""|""|""|""|""|""|""|"1.0"
"http://slipo.eu/id/poi/70d47fef-1a90-3ae5-b917-cd9f05aac2e8"|"N1426472052"|"OpenStreetMap"|"19.8623446"|"39.5520542"|"SRID=4326;POINT (19.8623446 39.5520542)"|""|""|"RESTAURANT"|"EAT/DRINK"|"Golden View"|""|""|""|""|""|""|""|""|""|""|""|""|""|""|"1.0"
"http://slipo.eu/id/poi/dade2df3-5b6a-39b5-aa83-93484fd2ee8a"|"2269"|"GET"|"19.750015023065277"|"39.78709974500253"|"SRID=4326;MULTIPOINT ((19.750015023065277 39.78709974500253))"|""|""|"Accommodation"|"ACCOMMODATION"|"Ενοικιαζόμενα Δωμάτια; ROOMS TO LET"|""|"0"|""|""|""|""|""|""|""|""|""|""|""|""|""
"http://slipo.eu/id/poi/696f4d64-e2cd-38f7-8ace-c5a7c513da4a"|"1747"|"GET"|"19.92887434730768"|"39.62354277288384"|"SRID=4326;MULTIPOINT ((19.92887434730768 39.62354277288384))"|""|""|"Natural Attractions"|"NATURAL ATTRACTION"|"KERKIRA, 72m.; Κέρκυρα, 72μ."|""|"0"|""|""|""|""|""|""|""|""|""|""|""|""|""
"http://slipo.eu/id/poi/6d52933a-16fe-3879-acd4-12bd49a7263e"|"2261"|"GET"|"19.91667898297595"|"39.47714985823524"|"SRID=4326;MULTIPOINT ((19.91667898297595 39.47714985823524))"|""|""|"Accommodation"|"ACCOMMODATION"|"Ενοικιαζόμενα Δωμάτια; ROOMS TO LET"|""|"0"|""|""|""|""|""|""|""|""|""|""|""|""|""
"http://slipo.eu/id/poi/6470bd11-6349-3e44-9af4-a8b8125bdf5e"|"1737"|"GET"|"19.837929673218536"|"39.70844116135255"|"SRID=4326;MULTIPOINT ((19.837929673218536 39.70844116135255))"|""|""|"Accommodation"|"ACCOMMODATION"|"Corfu Secret Hotel; Corfu Secret Hotel"|""|"2661097921"|"2661097931"|"info@corfusecret.gr"|"http://www.corfusecret.gr"|"Άγιος Μάρκος"|""|"49083"|""|""|""|""|""|""|""
"http://slipo.eu/id/poi/a9f73c12-80e7-3133-96ef-56b78423b6af"|"W449144764"|"OpenStreetMap"|"19.404304837838644"|"39.84228043831807"|"SRID=4326;MULTIPOLYGON (((19.402792 39.8426946, 19.4045459 39.842812, 19.4065139 39.841383, 19.4046896 39.8419592, 19.4042125 39.8420975, 19.4037648 39.8421391, 19.4027109 39.8420984, 19.402792 39.8426946)))"|"789.7884384000636"|"18559.43802906666"|"VILLAGE"|"SETTLEMENTS"|"Άμμος"|""|""|""|""|""|""|""|""|""|""|""|""|""|""|"1.0"
"http://slipo.eu/id/poi/b4f0c57e-a5df-3f4e-b95a-3dfddc6c3b9f"|"N1771624463"|"OpenStreetMap"|"19.9428548"|"39.4411973"|"SRID=4326;POINT (19.9428548 39.4411973)"|""|""|"HAMLET"|"SETTLEMENTS"|"Λίνια"|""|""|""|""|""|""|""|"49080"|""|""|""|""|""|""|"1.0"
"http://slipo.eu/id/poi/46685b95-9366-32ae-a92a-f22d3805cf2b"|"W499881436"|"OpenStreetMap"|"19.76367459413885"|"39.79371379337965"|"SRID=4326;MULTIPOLYGON (((19.7637109 39.7939467, 19.7637239 39.7939386, 19.7637895 39.7940057, 19.7638859 39.7939471, 19.763821 39.7938841, 19.7639552 39.7937941, 19.7639813 39.7938147, 19.7640317 39.7937781, 19.7640043 39.7937547, 19.7640428 39.7937301, 19.7639752 39.7936637, 19.763894 39.7937154, 19.763874 39.7936995, 19.7638199 39.7937306, 19.7637111 39.7936192, 19.7637384 39.7935695, 19.7633951 39.7934582, 19.7633092 39.7936066, 19.763556 39.7936766, 19.763497 39.7937137, 19.7636467 39.7938596, 19.7636264 39.793874, 19.7637109 39.7939467)))"|"223.24635563658111"|"1437.132869027723"|"HOTEL"|"ACCOMMODATION"|"Angela Beach"|""|""|""|""|""|""|""|""|""|""|""|""|""|""|"1.0"
"http://slipo.eu/id/poi/f3710e5c-7b70-3992-86e8-722b70c8a6c7"|"1753"|"GET"|"19.91150582644978"|"39.62590056411257"|"SRID=4326;MULTIPOINT ((19.91150582644978 39.62590056411257))"|""|""|"Car"|"AUTOMOTIVE"|"PARKING; Χώρος Στάθμευσης"|""|"0"|""|""|""|""|""|""|""|""|""|""|""|""|""
"http://slipo.eu/id/poi/ee773000-512c-3d9d-9992-8720882c69a7"|"W488103588"|"OpenStreetMap"|"19.887708776726935"|"39.56838884023639"|"SRID=4326;MULTIPOLYGON (((19.8879589 39.5685476, 19.8876581 39.5681465, 19.8874548 39.5682186, 19.8877638 39.5686385, 19.8879589 39.5685476)))"|"143.88418534483836"|"1016.6205921401472"|"SCHOOL"|"EDUCATION"|"Kynopiastes School Centre"|""|""|""|""|""|"Μηλιά Κυνοπιαστών"|""|"49084"|"Κέρκυρα"|""|""|""|""|""|"1.0"
"http://slipo.eu/id/poi/f0c47579-1103-35df-a936-2423d582e9ec"|"3481"|"GET"|"19.708298028709944"|"39.78279272239762"|"SRID=4326;MULTIPOINT ((19.708298028709944 39.78279272239762))"|""|""|"Health"|"HEALTH"|"Pharmacy; Φαρμακείο"|""|"2663099250"|""|""|""|""|"0"|"49081"|""|""|""|""|""|""|""
"http://slipo.eu/id/poi/31b291bb-7873-3220-a803-d80a2804494f"|"1638"|"GET"|"19.904276019160246"|"39.727766571906464"|"SRID=4326;MULTIPOINT ((19.904276019160246 39.727766571906464))"|""|""|"Accommodation"|"ACCOMMODATION"|"Ενοικιαζόμενα Δωμάτια; ROOMS TO LET"|""|"0"|""|""|""|""|""|""|""|""|""|""|""|""|""
"http://slipo.eu/id/poi/6eeba2b4-4f5a-30b0-937c-09a9b9b6ac5c"|"W129366054"|"OpenStreetMap"|"20.097906019132385"|"39.404584705638854"|"SRID=4326;MULTIPOLYGON (((20.0974936 39.4045541, 20.0982401 39.4048454, 20.0983554 39.404669, 20.097913 39.4044963, 20.0979552 39.4044318, 20.0976511 39.4043131, 20.0974936 39.4045541)))"|"203.87129302626295"|"1815.060284732241"|"HOTEL"|"ACCOMMODATION"|"Aquis Capo di Corfu"|""|""|""|""|""|""|""|""|""|""|""|""|""|""|"1.0"
"http://slipo.eu/id/poi/c42f070d-9432-33c5-bcb5-17b0720c86ad"|"W152116918"|"OpenStreetMap"|"19.80831416080528"|"39.5915400123784"|"SRID=4326;MULTIPOLYGON (((19.8030839 39.5939043, 19.8031019 39.5940544, 19.8031938 39.5941596, 19.8035699 39.5941644, 19.8040969 39.5940502, 19.8043713 39.5940108, 19.8049418 39.5937547, 19.8055917 39.5934052, 19.8060852 39.5931303, 19.8069543 39.5927045, 19.807649 39.5923118, 19.8084448 39.5917684, 19.8090491 39.5913238, 19.8101756 39.5906293, 19.8106423 39.5904412, 19.8114523 39.5898769, 19.811742 39.5896516, 19.8118305 39.589447, 19.812029 39.5889902, 19.8121811 39.588825, 19.8123455 39.5886987, 19.8125191 39.5885811, 19.8125132 39.5885008, 19.8124448 39.5885024, 19.8121685 39.5887318, 19.8119754 39.5888744, 19.8117064 39.5891371, 19.811557 39.5892568, 19.8112592 39.5893064, 19.8111466 39.589387, 19.8108883 39.5897634, 19.8107201 39.589941, 19.8102507 39.5902118, 19.8099503 39.5903503, 19.809725 39.5903792, 19.8094353 39.5905983, 19.809236 39.5908093, 19.8089418 39.5909145, 19.8086414 39.5911626, 19.8082847 39.591516, 19.8081774 39.5915842, 19.8079547 39.5916318, 19.8076678 39.5917496, 19.8074854 39.5918591, 19.8070508 39.5922518, 19.8067156 39.5924895, 19.8064339 39.5926652, 19.8062328 39.5927458, 19.8060584 39.5928016, 19.8058063 39.5929422, 19.8054898 39.5931654, 19.8051143 39.5934031, 19.8047173 39.5935932, 19.8042694 39.5938185, 19.8038859 39.5939115, 19.8036095 39.593955, 19.8034151 39.593957, 19.8032623 39.5939394, 19.8031563 39.5938899, 19.8030839 39.5939043)))"|"2131.18908209967"|"33355.14428560231"|"BEACH"|"NATURAL ATTRACTION"|"Glyfada beach"|""|""|""|""|""|""|""|""|""|""|""|""|""|""|"1.0"
"http://slipo.eu/id/poi/54d51f0f-6780-3c3d-baa7-7d25ff0fb114"|"N2829489023"|"OpenStreetMap"|"19.9233421"|"39.6248609"|"SRID=4326;POINT (19.9233421 39.6248609)"|""|""|"GIFT"|"SHOP"|"The land of corfu"|""|""|""|""|""|""|""|""|""|""|""|""|""|""|"1.0"
"http://slipo.eu/id/poi/045ce0f4-ba3f-329a-a8fb-f6c8ef5a174e"|"N5556013287"|"OpenStreetMap"|"19.8385408"|"39.6867883"|"SRID=4326;POINT (19.8385408 39.6867883)"|""|""|"HOSTEL"|"ACCOMMODATION"|"Wilde Rose Hotel & Restaurant"|""|"2661 093000"|""|""|"http://www.wilderose.gr/"|""|""|""|""|""|""|""|""|""|"1.0"
"http://slipo.eu/id/poi/41d2b640-2fbe-3e59-b3f2-2fc5e7505f21"|"N4414608505"|"OpenStreetMap"|"19.6586126"|"39.7440944"|"SRID=4326;POINT (19.6586126 39.7440944)"|""|""|"SUPERMARKET"|"SHOP"|"Stamatis"|""|""|""|""|""|""|""|""|""|""|""|""|""|""|"1.0"
"http://slipo.eu/id/poi/ed78a766-4272-3d3f-8bdb-865f0adaed1c"|"1624"|"GET"|"19.839442168419183"|"39.677131211271664"|"SRID=4326;MULTIPOINT ((19.839442168419183 39.677131211271664))"|""|""|"Accommodation"|"ACCOMMODATION"|"DASIA CHANDRIS HOTEL; Dasia Chandris Hotel"|""|"0"|""|""|""|""|""|""|""|""|""|""|""|""|""
"http://slipo.eu/id/poi/9859eea0-12cd-3012-b1aa-ea4f283a4179"|"2526"|"GET"|"19.942274769481642"|"39.46934728988942"|"SRID=4326;MULTIPOINT ((19.942274769481642 39.46934728988942))"|""|""|"Accommodation"|"ACCOMMODATION"|"Kerkyra Island; Kerkyra Island"|""|"2661076173"|"2661076778"|"smarkatis@yahoo.gr"|"http://www.kerkyraisland.com"|""|""|"49080"|""|""|""|""|""|""|""
"http://slipo.eu/id/poi/42862679-d903-3c10-8931-4b0b308f7341"|"2074"|"GET"|"19.92258840725589"|"39.62749479174334"|"SRID=4326;MULTIPOINT ((19.92258840725589 39.62749479174334))"|""|""|"Religion"|"RELIGIOUS"|"KIRAS ADIVOUNIOTISSAS; Κυράς Αντιβουνιώτισσας"|""|"0"|""|""|""|"ARSENIOU; Αρσενιου"|""|""|""|""|""|""|""|""|""
"http://slipo.eu/id/poi/993bdf8a-e065-3094-9a89-dc699273bd52"|"W305881390"|"OpenStreetMap"|"19.40455465161232"|"39.84168056210306"|"SRID=4326;MULTIPOLYGON (((19.4051177 39.8411369, 19.405304 39.8412307, 19.4053462 39.8413454, 19.4048586 39.8417493, 19.4042765 39.8419728, 19.4037708 39.8421274, 19.4035056 39.8420847, 19.4033764 39.8419633, 19.403779 39.8419702, 19.4043436 39.8417544, 19.4046425 39.8415328, 19.4049336 39.8412957, 19.4051177 39.8411369)))"|"420.1123059532557"|"4270.448975315352"|"BEACH"|"NATURAL ATTRACTION"|"Άμμος"|""|""|""|""|""|""|""|""|""|""|""|""|""|""|"1.0"
"http://slipo.eu/id/poi/438d09da-fedc-3eea-bfd0-42c19c0be9fe"|"1625"|"GET"|"19.83854701833628"|"39.67915780690747"|"SRID=4326;MULTIPOINT ((19.83854701833628 39.67915780690747))"|""|""|"Accommodation"|"ACCOMMODATION"|"HOTEL CORFU CHANDRIS; Hotel Corfu Chandris"|""|"0"|""|""|""|""|""|""|""|""|""|""|""|""|""
"http://slipo.eu/id/poi/b74ede17-bbd4-373a-8e0e-c6dfa1c81135"|"N1772947135"|"OpenStreetMap"|"19.9335033"|"39.7590418"|"SRID=4326;POINT (19.9335033 39.7590418)"|""|""|"VILLAGE"|"SETTLEMENTS"|"Αγνίτσινη"|""|""|""|""|""|""|""|"49100"|""|""|""|""|""|""|"1.0"
"http://slipo.eu/id/poi/213f9778-106f-31c6-82ea-3e45135df9f0"|"N4931203622"|"OpenStreetMap"|"19.9126681"|"39.5471401"|"SRID=4326;POINT (19.9126681 39.5471401)"|""|""|"MEMORIAL"|"TOURISM"|"Benitses Park Monument"|""|""|""|""|""|""|""|""|""|""|""|""|""|""|"1.0"
"http://slipo.eu/id/poi/d313d4e9-f520-38eb-9867-505bc093f939"|"N1987958823"|"OpenStreetMap"|"19.8397566"|"39.672514"|"SRID=4326;POINT (19.8397566 39.672514)"|""|""|"BUSSTOP"|"TRANSPORT"|"Primavera"|""|""|""|""|""|""|""|""|""|""|""|""|""|""|"1.0"
"http://slipo.eu/id/poi/8b5b9b63-ce06-365f-8939-b6339bdb2f9a"|"W428435685"|"OpenStreetMap"|"19.668126024779657"|"39.78723635471753"|"SRID=4326;MULTIPOLYGON (((19.6680983 39.7873028, 19.6682055 39.7872698, 19.6681519 39.7871688, 19.6680473 39.7872039, 19.6680983 39.7873028)))"|"43.5824196781179"|"117.54818177628366"|"RESTAURANT"|"EAT/DRINK"|"Taverna Sunset"|""|""|""|""|""|""|""|""|""|""|""|""|""|""|"1.0"
"http://slipo.eu/id/poi/3129e88a-1700-3c7d-bde8-b1d8add0c87f"|"2553"|"GET"|"19.821606145542866"|"39.58393989786269"|"SRID=4326;MULTIPOINT ((19.821606145542866 39.58393989786269))"|""|""|"Accommodation"|"ACCOMMODATION"|"Aquis Pelekas Beach Hotel; Aquis Pelekas Beach Hotel"|""|"2661095151"|"2661095181"|"pelekas@aquisresorts.com"|"http://www.aquisresorts.com"|""|""|""|""|""|""|""|""|""|""
"http://slipo.eu/id/poi/04cd7c19-0d47-3694-a9da-cda9132e71bc"|"2318"|"GET"|"19.922522578811318"|"39.61988154769357"|"SRID=4326;MULTIPOINT ((19.922522578811318 39.61988154769357))"|""|""|"Culture – Entertainment"|"TOURISM"|"FINIKAS SUMMER CINEMA; Θερινό Cinema Φοίνικας"|""|"0"|""|""|""|""|""|"49100"|""|""|""|""|""|""|""
"http://slipo.eu/id/poi/c30099f8-730f-3e8e-bf73-0aa089fdcba2"|"N4314406190"|"OpenStreetMap"|"19.8084181"|"39.592423"|"SRID=4326;POINT (19.8084181 39.592423)"|""|""|"BAR"|"EAT/DRINK"|"Pazuzu"|""|"+302661094444"|""|""|""|"Glyfada Corfu Greece"|""|"49100"|""|""|"Mo-Su 10:00-01:00"|""|""|""|"1.0"
"http://slipo.eu/id/poi/34092920-ddcf-3cd5-bff9-752c7a26ee35"|"W429356133"|"OpenStreetMap"|"19.949051667980232"|"39.428005347904616"|"SRID=4326;MULTIPOLYGON (((19.9489531 39.4279919, 19.9490953 39.4279358, 19.9491502 39.4280188, 19.9490081 39.4280749, 19.9489531 39.4279919)))"|"48.16889608725283"|"142.16922774888582"|"SUPERMARKET"|"SHOP"|"Anna"|""|""|""|""|""|""|""|""|""|""|""|""|""|""|"1.0"
"http://slipo.eu/id/poi/75d5ef06-4b65-3b1e-8645-6135f5e23b86"|"N1987964582"|"OpenStreetMap"|"19.8881862"|"39.6276077"|"SRID=4326;POINT (19.8881862 39.6276077)"|""|""|"BUSSTOP"|"TRANSPORT"|"Tsoris"|""|""|""|""|""|""|""|""|""|""|""|""|""|""|"1.0"
"http://slipo.eu/id/poi/dfd54edd-0333-3b01-85ae-143ad069cb25"|"1639"|"GET"|"19.90808068799319"|"39.72811640988975"|"SRID=4326;MULTIPOINT ((19.90808068799319 39.72811640988975))"|""|""|"Accommodation"|"ACCOMMODATION"|"Ενοικιαζόμενα Δωμάτια; ROOMS TO LET"|""|"0"|""|""|""|""|""|""|""|""|""|""|""|""|""
"http://slipo.eu/id/poi/595d9577-b6aa-3650-9609-ade148e36fd5"|"2278"|"GET"|"19.923774501749293"|"39.51558260599183"|"SRID=4326;MULTIPOINT ((19.923774501749293 39.51558260599183))"|""|""|"Accommodation"|"ACCOMMODATION"|"ONIRO; Oniro"|""|"2661072500"|"2661072500"|"oniro@otenet.gr"|"http://www.oniro-villas.gr"|""|""|""|""|""|""|""|""|""|""
"http://slipo.eu/id/poi/85e74b74-8508-3fe7-83cc-34ae01d022a2"|"2177"|"GET"|"19.91980124830371"|"39.62079672860912"|"SRID=4326;MULTIPOINT ((19.91980124830371 39.62079672860912))"|""|""|"Education"|"EDUCATION"|"12ο Δημοτικό Κέρκυρας; 12th PRIMARY SCHOOL KERKIRAS"|""|"0"|""|""|""|""|""|""|""|""|""|""|""|""|""
"http://slipo.eu/id/poi/57d212d5-9a9c-34e6-ba5b-e6c1df0f2379"|"2292"|"GET"|"19.836898567455275"|"39.61806207227678"|"SRID=4326;MULTIPOLYGON (((19.8364756 39.6180591, 19.8374199 39.6144294, 19.8378775 39.6143619, 19.8383162 39.6144784, 19.8383849 39.6147388, 19.8384255 39.6150094, 19.8385029 39.6152223, 19.8387667 39.6154147, 19.8390018 39.6154041, 19.8391681 39.6154454, 19.8390769 39.6157347, 19.8392555 39.6158175, 19.8394662 39.6159148, 19.8397474 39.6160446, 19.8407746 39.6167392, 19.840073 39.6174124, 19.8391333 39.6178192, 19.838209 39.6179959, 19.8370946 39.6181323, 19.8366758 39.6180963, 19.8364756 39.6180591)))"|""|""|"Tourism"|"TOURISM"|"Aqualand; Aqualand"|""|"0"|""|""|""|""|""|""|""|""|""|""|""|"1.0"|"{scoreA: 1.0, scoreB: 1.0, score: 0.10526316}"
"http://slipo.eu/id/poi/75bb4219-ee10-33e9-839f-9f70b2084f5d"|"N4282582078"|"OpenStreetMap"|"19.9562469"|"39.4251846"|"SRID=4326;POINT (19.9562469 39.4251846)"|""|""|"RESTAURANT"|"EAT/DRINK"|"Zacks"|""|""|""|""|""|""|""|""|""|""|""|""|""|""|"1.0"
"http://slipo.eu/id/poi/5bfbd0c3-4fa0-377f-b11c-fcd64308fe29"|"W335189552"|"OpenStreetMap"|"19.91502559444548"|"39.6205137371289"|"SRID=4326;MULTIPOLYGON (((19.9142585 39.6207452, 19.914237 39.620427, 19.9144838 39.6201378, 19.9149773 39.6200138, 19.915385 39.6201956, 19.9155084 39.6197452, 19.9155888 39.6197865, 19.9157873 39.6204807, 19.9151597 39.6211956, 19.9148762 39.6210669, 19.9146849 39.6209583, 19.9142585 39.6207452)))"|"485.14572201683563"|"12027.812366458604"|"UNIVERSITY"|"EDUCATION"|"Ιόνιο Πανεπιστήμιο (πρώην Ψυχιατρείο Κέρκυρας)"|""|""|""|""|""|""|""|""|""|""|""|""|""|""|"1.0"
"http://slipo.eu/id/poi/55149089-3042-31d9-9caa-0ddc9b90fc7a"|"2390"|"GET"|"19.776971009049806"|"39.76963888952287"|"SRID=4326;MULTIPOINT ((19.776971009049806 39.76963888952287))"|""|""|"Super Market"|"SHOP"|"SUPER MARKET EUA; Super Market Eua"|""|"0"|""|""|""|""|""|""|""|""|""|""|""|""|""
"http://slipo.eu/id/poi/8a60b35e-29b4-398f-a375-86c221bd093b"|"W291869895"|"OpenStreetMap"|"19.85016375561724"|"39.54700267279025"|"SRID=4326;MULTIPOLYGON (((19.8500319 39.5470157, 19.8500796 39.5469329, 19.8502227 39.5469439, 19.850284 39.5469629, 19.8502259 39.5470978, 19.8500319 39.5470157)))"|"62.87672692994407"|"244.84165419804236"|"CONVENIENCE"|"SHOP"|"Supermarket"|""|""|""|""|""|""|""|""|""|""|""|""|""|""|"1.0"
"http://slipo.eu/id/poi/25ec52d0-bc0f-356f-8bef-90e84edaebff"|"N3181729693"|"OpenStreetMap"|"19.9156503"|"39.6212064"|"SRID=4326;POINT (19.9156503 39.6212064)"|""|""|"CAFE"|"EAT/DRINK"|"Lunatico"|""|""|""|""|""|""|""|""|""|""|""|""|""|""|"1.0"
"http://slipo.eu/id/poi/a2ed9835-412c-3d99-80e8-5783542aee2e"|"2511"|"GET"|"19.91381502151819"|"39.54170815270203"|"SRID=4326;MULTIPOINT ((19.91381502151819 39.54170815270203))"|""|""|"Accommodation"|"ACCOMMODATION"|"Bella Vista; Bella Vista"|""|"2661072087"|"2661072088"|"info@bellavistahotel.gr"|"http://www.bellavistahotel.gr"|""|""|"49084"|""|""|""|""|""|""|""
"http://slipo.eu/id/poi/5f5c7ebf-b85a-3807-9d61-90741963f65a"|"W288838108"|"OpenStreetMap"|"19.807294627788234"|"39.79263880970606"|"SRID=4326;MULTIPOLYGON (((19.8070487 39.7927966, 19.8071701 39.792828, 19.8071452 39.792918, 19.807297 39.7929544, 19.8075565 39.7924397, 19.8072569 39.7923505, 19.8070487 39.7927966)))"|"176.21943377879745"|"1540.632272099553"|"HOTEL"|"ACCOMMODATION"|"Villa Alexandra"|""|""|""|""|""|""|""|""|""|""|""|""|""|""|"1.0"
"http://slipo.eu/id/poi/09ccb36d-165d-3ba9-99f0-c4ee200ad08e"|"N2681839931"|"OpenStreetMap"|"19.8162008"|"39.6726885"|"SRID=4326;POINT (19.8162008 39.6726885)"|""|""|"FUEL"|"AUTOMOTIVE"|"Avin"|""|""|""|""|""|""|""|""|""|""|""|""|""|""|"1.0"
"http://slipo.eu/id/poi/f14f15f1-8b35-3b21-a4a7-08c85b6ac072"|"3199"|"GET"|"19.92200574829413"|"39.62350541708316"|"SRID=4326;MULTIPOINT ((19.92200574829413 39.62350541708316))"|""|""|"Health"|"HEALTH"|"Φαρμακείο; Pharmacy"|""|"2661039858"|""|""|""|"Δημάρχου Κολλά Δημήτριου"|"7"|"49100"|""|""|""|""|""|""|""
"http://slipo.eu/id/poi/0b0538ab-9cf7-364b-a240-f5eece6a0add"|"2295"|"GET"|"19.91460196491899"|"39.607797069291045"|"SRID=4326;MULTIPOINT ((19.91460196491899 39.607797069291045))"|""|""|"Transport"|"TRANSPORT"|"NATIONAL AIRPORT OF CORFU 'KAPODISTRIAS'; Κρατικός Αερολιμένας Κέρκυρας 'Καποδίστριας'"|""|"2661045829"|""|""|""|""|""|""|""|""|""|""|""|""|""
"http://slipo.eu/id/poi/1d0313ef-74c2-3a5e-94b7-a688e8e2b814"|"3167"|"GET"|"19.920409260665455"|"39.620980507524614"|"SRID=4326;MULTIPOINT ((19.920409260665455 39.620980507524614))"|""|""|"Health"|"HEALTH"|"Pharmacy; Φαρμακείο"|""|"2661030235"|""|""|""|"Μάντζαρου Γ."|"4"|"49100"|""|""|""|""|""|""|""
"http://slipo.eu/id/poi/8def560e-2704-3009-9b97-66bdc21076c3"|"N3495619549"|"OpenStreetMap"|"19.916998"|"39.593885"|"SRID=4326;POINT (19.916998 39.593885)"|""|""|"HOTEL"|"ACCOMMODATION"|"Hellinis"|""|""|""|""|""|""|""|""|""|""|""|""|""|""|"1.0"
"http://slipo.eu/id/poi/8870260c-0d25-3082-8f45-1395270d4468"|"W540154292"|"OpenStreetMap"|"19.405062141724798"|"39.85232667457222"|"SRID=4326;MULTIPOLYGON (((19.4049677 39.8523137, 19.4049934 39.8523801, 19.4051569 39.8523406, 19.4051288 39.8522725, 19.4049677 39.8523137)))"|"44.80920155052967"|"113.98381896676608"|"CHRISTIAN"|"RELIGIOUS"|"Ι.Ν. Αγίας Παρασκευής"|""|""|""|""|""|""|""|""|""|""|""|""|""|""|"1.0"
"http://slipo.eu/id/poi/2be156b0-353e-3c27-81f8-e25999e13009"|"2152"|"GET"|"19.92049931028575"|"39.62104065246131"|"SRID=4326;MULTIPOINT ((19.92049931028575 39.62104065246131))"|""|""|"Public Services"|"PUBLIC SERVICE"|"ΟΤΕ Κέρκυρας; HELLENIC ORGANIZATION OF TELECOMMUNICATIONS OF CORFU"|""|"0"|""|""|""|""|""|""|""|""|""|""|""|""|""
"http://slipo.eu/id/poi/d71636e4-6bfe-335c-8046-b8f6ea70859d"|"4031"|"GET"|"19.915623912931725"|"39.62310843693908"|"SRID=4326;MULTIPOINT ((19.915623912931725 39.62310843693908))"|""|""|"Banks"|"BUSINESS"|"Piraeus Bank - Pl. Sarokou-kerkira; Τράπεζας Πειραιώς - Πλ. Σαρόκου-Κέρκυρα"|""|"2661045325"|"2661036337"|""|"http://www.piraeusbank.gr"|"Θεοτόκη Ιωάννη"|"60"|"49100"|""|""|""|""|""|""|""
"http://slipo.eu/id/poi/4e5d922b-ab87-399b-a52d-23b78f045016"|"2180"|"GET"|"19.918151275155278"|"39.61523847709217"|"SRID=4326;MULTIPOINT ((19.918151275155278 39.61523847709217))"|""|""|"Education"|"EDUCATION"|"6th PRIMARY SCHOOL KERKIRAS; 6ο Δημοτικό Κέρκυρας"|""|"0"|""|""|""|""|""|""|""|""|""|""|""|""|""
"http://slipo.eu/id/poi/bc8dfb66-57e8-38cc-8849-3dbd3316e692"|"N3048667689"|"OpenStreetMap"|"19.8903421"|"39.7769871"|"SRID=4326;POINT (19.8903421 39.7769871)"|""|""|"CAVE"|"NATURAL ATTRACTION"|"Loutses cave"|""|""|""|""|""|""|""|""|""|""|""|""|""|""|"1.0"
"http://slipo.eu/id/poi/f3357461-e95b-397a-9784-f64d64824b47"|"N1029715541"|"OpenStreetMap"|"19.8551864"|"39.6476937"|"SRID=4326;POINT (19.8551864 39.6476937)"|""|""|"BAR"|"EAT/DRINK"|"Pool Bar"|""|""|""|""|""|""|""|""|""|""|""|""|""|""|"1.0"
"http://slipo.eu/id/poi/71eac6ff-5efa-322d-b692-e750b31d193f"|"N1987964578"|"OpenStreetMap"|"19.8464508"|"39.6481366"|"SRID=4326;POINT (19.8464508 39.6481366)"|""|""|"BUSSTOP"|"TRANSPORT"|"Spiti Prifti"|""|""|""|""|""|""|""|""|""|""|""|""|""|""|"1.0"
"http://slipo.eu/id/poi/7b55247b-c1d2-3117-9027-75334764a0b1"|"2500"|"GET"|"19.924733775183878"|"39.60858202531336"|"SRID=4326;MULTIPOINT ((19.924733775183878 39.60858202531336))"|""|""|"Accommodation"|"ACCOMMODATION"|"Arion Hotel Corfu; Arion Hotel Corfu"|""|"2661037950"|"2661038904"|"info@arioncorfu.gr"|"http://www.arioncorfu.gr"|"Σχερίας"|"6"|"49100"|""|""|""|""|""|""|""
"http://slipo.eu/id/poi/9be22df9-8188-371d-8b6d-1d25250014a4"|"W502732164"|"OpenStreetMap"|"19.905023368208294"|"39.56070550471479"|"SRID=4326;MULTIPOLYGON (((19.9048376 39.560708, 19.9051487 39.560808, 19.9052135 39.560703, 19.9048894 39.5606031, 19.9048376 39.560708)))"|"84.29248024762377"|"373.4173382455821"|"TENNIS"|"SPORT"|"Tennis Court"|""|""|""|""|""|""|""|""|""|""|""|""|""|""|"1.0"
"http://slipo.eu/id/poi/23ebd01e-1cf8-3344-97bb-75107ceabffd"|"2549"|"GET"|"19.852918302569687"|"39.548252644254205"|"SRID=4326;MULTIPOINT ((19.852918302569687 39.548252644254205))"|""|""|"Accommodation"|"ACCOMMODATION"|"Alonakia Hotel; Alonakia Hotel"|""|"2661053777"|"2661053777"|"alonakia@otenet.gr"|"http://www.alonakiahotel.gr"|""|""|""|""|""|""|""|""|""|""
"http://slipo.eu/id/poi/642180d8-0a1e-3ad0-9522-17628e24e8e0"|"N2919426994"|"OpenStreetMap"|"19.8135576"|"39.7907322"|"SRID=4326;POINT (19.8135576 39.7907322)"|""|""|"FISH"|"SHOP"|"Fish market"|""|""|""|""|""|""|""|""|""|""|"Mo-Sa 08:00-16:00"|""|""|""|"1.0"
"http://slipo.eu/id/poi/7d3b71be-1028-3db5-a29c-5ef5cb00f88e"|"4074"|"GET"|"19.92380884332278"|"39.50860354967819"|"SRID=4326;MULTIPOINT ((19.92380884332278 39.50860354967819))"|""|""|"ATM"|"BUSINESS"|"Τράπεζα Πειραιώς - Ξενοδοχείο Marbella Corfu, Άγιος Ιωάννης Περιστερών; Piraeus Bank - Xenodochio Marbella Corfu, Agios Ioannis Peristeron"|""|"0"|""|""|"http://www.piraeusbank.gr"|"Επαρχιακή Οδός Βρυώνης - Αγίου Νικολάου"|""|"49084"|""|""|""|""|""|""|""
"http://slipo.eu/id/poi/e25f26d3-a543-3bb4-b2d0-152c0c7c37e3"|"N5157319641"|"OpenStreetMap"|"19.6716189"|"39.7214866"|"SRID=4326;POINT (19.6716189 39.7214866)"|""|""|"CAFE"|"EAT/DRINK"|"San George"|""|""|""|""|""|""|""|""|""|""|""|""|""|""|"1.0"
"http://slipo.eu/id/poi/15be773f-d341-31a9-a976-4a9017ef4f51"|"2252"|"GET"|"19.920904172701057"|"39.530070717251775"|"SRID=4326;MULTIPOINT ((19.920904172701057 39.530070717251775))"|""|""|"Accommodation"|"ACCOMMODATION"|"SPIROS; Spiros"|""|"0"|""|""|""|""|""|""|""|""|""|""|""|""|""
"http://slipo.eu/id/poi/cb2e2b4c-f4ac-3597-aecf-71844cf336ad"|"N4234180390"|"OpenStreetMap"|"19.8499337"|"39.5467479"|"SRID=4326;POINT (19.8499337 39.5467479)"|""|""|"RESTAURANT"|"EAT/DRINK"|"Kochili"|""|""|""|""|""|""|""|""|""|""|""|""|""|""|"1.0"
"http://slipo.eu/id/poi/6623d237-e164-36cc-9fca-7c0e1a5ad1f0"|"N4275203166"|"OpenStreetMap"|"20.0015802"|"39.4541683"|"SRID=4326;POINT (20.0015802 39.4541683)"|""|""|"RESTAURANT"|"EAT/DRINK"|"Taverna Apaggio"|""|""|""|""|""|""|""|""|"Petriti"|""|""|""|""|""|"1.0"
"http://slipo.eu/id/poi/4cfac690-a530-39ca-8da6-d0939430767b"|"2171"|"GET"|"19.914282085293323"|"39.621565832516346"|"SRID=4326;MULTIPOINT ((19.914282085293323 39.621565832516346))"|""|""|"Education"|"EDUCATION"|"1ο Λύκειο Κέρκυρας; 1st HIGH SCHOOL OF CORFU"|""|"0"|""|""|""|""|""|""|""|""|""|""|""|""|""
"http://slipo.eu/id/poi/b28b27b5-a368-3c63-8c98-f6a5f5761ca5"|"N2925167723"|"OpenStreetMap"|"19.8159391"|"39.7921699"|"SRID=4326;POINT (19.8159391 39.7921699)"|""|""|"CAFE"|"EAT/DRINK"|"Internet cafe"|""|""|""|""|""|""|""|""|""|""|""|""|""|""|"1.0"
"http://slipo.eu/id/poi/b96fffda-37db-3c9b-b6bd-cb88fa666c5d"|"2342"|"GET"|"19.777359621670566"|"39.6112268967391"|"SRID=4326;MULTIPOINT ((19.777359621670566 39.6112268967391))"|""|""|"Tourism"|"TOURISM"|"Παραλία Ερμόνες; ERMONES BEACH"|""|"0"|""|""|""|""|""|""|""|""|""|""|""|""|""
"http://slipo.eu/id/poi/dc58ea07-bdf9-3868-8805-6afb07c24e9c"|"2081"|"GET"|"19.923982832780563"|"39.625837861433205"|"SRID=4326;MULTIPOINT ((19.923982832780563 39.625837861433205))"|""|""|"Religion"|"RELIGIOUS"|"Αγία Αικατερίνη; AGIA EKATERINI"|""|"0"|""|""|""|"KAPODISTRIOU & AG. EKATERINIS; Καποδιστριου & Αγ. Αικατερινης"|""|""|""|""|""|""|""|""|""
"http://slipo.eu/id/poi/0732bac4-af5d-393b-951e-fb958df33300"|"2089"|"GET"|"19.91851991265855"|"39.62464551642915"|"SRID=4326;MULTIPOINT ((19.91851991265855 39.62464551642915))"|""|""|"Religion"|"RELIGIOUS"|"KIRAS TON AGELON; Κυράς Των Αγγέλων"|""|"0"|""|""|""|"VELLISSARIOU PARODOS 8I; Βελλισαριου Παροδος 8η"|""|""|""|""|""|""|""|""|""
"http://slipo.eu/id/poi/c4c8f44c-8f14-3aab-a4d9-d7f75438bc29"|"N528059694"|"OpenStreetMap"|"19.6737429"|"39.7206581"|"SRID=4326;POINT (19.6737429 39.7206581)"|""|""|"RESTAURANT"|"EAT/DRINK"|"Delfini"|""|""|""|""|""|""|""|""|""|""|""|""|""|""|"1.0"
"http://slipo.eu/id/poi/7ced7b33-f91c-32b4-b07d-9c45e4d0a425"|"3501"|"GET"|"19.892702829886254"|"39.587500951305124"|"SRID=4326;MULTIPOINT ((19.892702829886254 39.587500951305124))"|""|""|"Health"|"HEALTH"|"Pharmacy; Φαρμακείο"|""|"2661086099"|""|""|""|""|"0"|"49084"|""|""|""|""|""|""|""
"http://slipo.eu/id/poi/f3af69e5-43e4-31ab-af1f-a1c2739810fe"|"N1361205842"|"OpenStreetMap"|"19.8393422"|"39.5648214"|"SRID=4326;POINT (19.8393422 39.5648214)"|""|""|"RESTAURANT"|"EAT/DRINK"|"Aerostato"|""|""|""|""|""|""|""|""|""|""|""|""|""|""|"1.0"
"http://slipo.eu/id/poi/8fd31a75-e402-32dd-8ca0-b8aff8260f8d"|"2484"|"GET"|"19.915271609442232"|"39.621717114733364"|"SRID=4326;MULTIPOINT ((19.915271609442232 39.621717114733364))"|""|""|"Café - bar"|"EAT/DRINK"|"Lush Cafe; Lush Cafe"|""|"2661024412"|""|""|""|"Κωνσταντά Πολυχρονίου"|"20"|"49100"|""|""|""|""|""|""|""
"http://slipo.eu/id/poi/9f1865fb-b748-38ef-bb4d-e321a00f4bff"|"N1755780297"|"OpenStreetMap"|"19.9145899"|"39.6218061"|"SRID=4326;POINT (19.9145899 39.6218061)"|""|""|"SCHOOL"|"EDUCATION"|"1ο & 2ο & 3ο Λύκειο"|""|""|""|""|""|""|""|""|""|""|""|""|""|""|"1.0"
"http://slipo.eu/id/poi/ad2a520c-d3d4-385a-b8a5-15c4221f8773"|"N938704105"|"OpenStreetMap"|"19.843977"|"39.6645113"|"SRID=4326;POINT (19.843977 39.6645113)"|""|""|"HAMLET"|"SETTLEMENTS"|"Λίμνη; Limni"|""|""|""|""|""|""|""|"49083"|""|""|""|""|""|""|"1.0"
"http://slipo.eu/id/poi/983904a4-22f5-3c04-a7ef-000570ec1039"|"N3688584208"|"OpenStreetMap"|"19.9239872"|"39.4871048"|"SRID=4326;POINT (19.9239872 39.4871048)"|""|""|"RESTAURANT"|"EAT/DRINK"|"The Village Taverna"|""|""|""|""|""|""|""|""|""|""|""|""|""|""|"1.0"
"http://slipo.eu/id/poi/83a7ead1-119e-327b-8fe8-094db79bcd9c"|"2396"|"GET"|"19.89297916953912"|"39.58803254761405"|"SRID=4326;MULTIPOINT ((19.89297916953912 39.58803254761405))"|""|""|"Super Market"|"SHOP"|"Super Market; SUPER MARKET"|""|"0"|""|""|""|""|""|""|""|""|""|""|""|""|""
"http://slipo.eu/id/poi/bf3a6f0e-d1f4-32d7-a3b0-7bd3783e0d0c"|"W198135432"|"OpenStreetMap"|"20.022096617411766"|"39.41077312219608"|"SRID=4326;MULTIPOLYGON (((20.0220411 39.4108086, 20.0221632 39.4107943, 20.0221521 39.4107376, 20.02203 39.410752, 20.0220411 39.4108086)))"|"33.984103290484995"|"67.61862913654198"|"CHRISTIAN"|"RELIGIOUS"|"Ιερός Ναός Αγίων Αποστόλων Πέτρου και Παύλου"|""|""|""|""|""|""|""|""|""|""|""|""|""|""|"1.0"
"http://slipo.eu/id/poi/b105e907-7ac4-31c6-ab3f-f16136154f36"|"N4413565682"|"OpenStreetMap"|"19.6499135"|"39.7409611"|"SRID=4326;POINT (19.6499135 39.7409611)"|""|""|"BIERGARTEN"|"EAT/DRINK"|"Vinceremo"|""|""|""|""|""|""|""|""|""|""|""|""|""|""|"1.0"
"http://slipo.eu/id/poi/316370b8-e673-38f7-8fd5-1548c0fa6778"|"N489956723"|"OpenStreetMap"|"19.8465401"|"39.7968363"|"SRID=4326;POINT (19.8465401 39.7968363)"|""|""|"HAMLET"|"SETTLEMENTS"|"Πόρτες"|""|""|""|""|""|""|""|""|""|""|""|""|""|""|"1.0"
"http://slipo.eu/id/poi/29293664-549f-3cc7-855f-204892176758"|"3588"|"GET"|"19.839361466631846"|"39.67508212187226"|"SRID=4326;MULTIPOINT ((19.839361466631846 39.67508212187226))"|""|""|"Gas Stations"|"AUTOMOTIVE"|"ΕΛΙΝ; ELIN"|""|"0"|""|""|"http://www.elin.gr"|""|""|""|""|""|""|""|""|"0.94434184"|"{scoreA: 1.0, scoreB: 1.0, score: 0.16666667}"
"http://slipo.eu/id/poi/0b958aa0-1db9-392a-82de-785fe0bc04c0"|"N3140544784"|"OpenStreetMap"|"19.8650852"|"39.7165357"|"SRID=4326;POINT (19.8650852 39.7165357)"|""|""|"SUPERMARKET"|"SHOP"|"Nicholas"|""|""|""|""|""|""|""|""|""|""|""|""|""|""|"1.0"
"http://slipo.eu/id/poi/f51afc4a-7bea-3a55-8208-8c9b898c8f96"|"3906"|"GET"|"19.894225842628106"|"39.59977489063439"|"SRID=4326;MULTIPOINT ((19.894225842628106 39.59977489063439))"|""|""|"ATM"|"BUSINESS"|"Εθνική Τράπεζα - Αχίλλειου Κέρκυρας; National Bank - Achilliou Kerkiras"|""|"0"|""|""|"http://www.nbg.gr"|"Επαρχιακη Οδος Γυρου Αχιλλειου"|""|"49100"|""|""|""|""|""|""|""
"http://slipo.eu/id/poi/20e19eb9-d273-3422-8aaf-6eb8f7284382"|"3987"|"GET"|"19.81576096058408"|"39.791770466119225"|"SRID=4326;MULTIPOINT ((19.81576096058408 39.791770466119225))"|""|""|"ATM"|"BUSINESS"|"Eurobank - Κέρκυρας; Eurobank - Kerkiras"|""|"0"|""|""|"http://www.eurobank.gr"|"Επαρχιακή Οδός Κασσιόπης - Σιδαρίου"|""|"49100"|""|""|""|""|""|""|""
"http://slipo.eu/id/poi/1d9f96e0-9316-3574-aecb-48281ed3e606"|"N1425859542"|"OpenStreetMap"|"19.9251481"|"39.6218537"|"SRID=4326;POINT (19.9251481 39.6218537)"|""|""|"CAFE"|"EAT/DRINK"|"Ακταίον"|""|""|""|""|""|""|""|""|""|""|""|""|""|""|"1.0"
"http://slipo.eu/id/poi/72aa1297-c023-327a-a557-119d83c01bc2"|"1653"|"GET"|"19.878606156009443"|"39.63392281752613"|"SRID=4326;MULTIPOINT ((19.878606156009443 39.63392281752613))"|""|""|"Accommodation"|"ACCOMMODATION"|"Ενοικιαζόμενα Δωμάτια; ROOMS TO LET"|""|"0"|""|""|""|""|""|""|""|""|""|""|""|""|""
"http://slipo.eu/id/poi/4c8083db-e678-32b0-847a-bef0866568da"|"1649"|"GET"|"19.89106917171346"|"39.79656704745379"|"SRID=4326;MULTIPOINT ((19.89106917171346 39.79656704745379))"|""|""|"Accommodation"|"ACCOMMODATION"|"SIRIOUS; Sirious"|""|"0"|""|""|""|""|""|""|""|""|""|""|""|""|""
"http://slipo.eu/id/poi/6e4407c7-693e-34fe-bb0b-35bde70eb895"|"N2036518482"|"OpenStreetMap"|"19.8217177"|"39.5817622"|"SRID=4326;POINT (19.8217177 39.5817622)"|""|""|"HOSTEL"|"ACCOMMODATION"|"Sunrock"|""|""|""|""|""|""|""|""|""|""|""|""|""|""|"1.0"
"http://slipo.eu/id/poi/a58ee41e-a96a-3526-a3d0-a257c7026aaa"|"2212"|"GET"|"19.914615835285584"|"39.54172987727862"|"SRID=4326;MULTIPOINT ((19.914615835285584 39.54172987727862))"|""|""|"Health"|"HEALTH"|"Ιατρείο; HEALTH CLINIC"|""|"0"|""|""|""|""|""|""|""|""|""|""|""|""|""
"http://slipo.eu/id/poi/fa993363-5741-3f10-b05e-7d1700d7cd7f"|"N4270535093"|"OpenStreetMap"|"19.7025712"|"39.7859228"|"SRID=4326;POINT (19.7025712 39.7859228)"|""|""|"HOTEL"|"ACCOMMODATION"|"Marina studio"|""|""|""|""|""|""|""|""|""|""|""|""|""|""|"1.0"
"http://slipo.eu/id/poi/c630618d-97da-35fa-99db-bd0a865ea99d"|"2216"|"GET"|"19.917503105766695"|"39.60661972054905"|"SRID=4326;MULTIPOINT ((19.917503105766695 39.60661972054905))"|""|""|"Sightseeing"|"TOURISM"|"ARTEMIDOS TEMPLE; Ναός Αρτέμιδος (Αεροδρόμιο Κέρκυρας)"|""|"0"|""|""|""|""|""|""|""|""|""|""|""|""|""
"http://slipo.eu/id/poi/85cd6099-6c64-32ba-bda3-25782433d0f9"|"W75902531"|"OpenStreetMap"|"19.916883519851776"|"39.618723832484704"|"SRID=4326;MULTIPOLYGON (((19.9161476 39.6188572, 19.9169625 39.6195589, 19.9176959 39.618748, 19.9176524 39.6184875, 19.9166746 39.6180043, 19.9162888 39.6182144, 19.9161476 39.6188572)))"|"456.16202350586786"|"13770.077797832928"|"BLOCKS"|"EAT/DRINK"|"British Cemetery"|""|""|""|""|""|""|""|""|""|""|""|""|""|""|"1.0"
"http://slipo.eu/id/poi/3f4f02c2-f689-335d-8b0f-f0463f87885d"|"N3495616743"|"OpenStreetMap"|"19.9223865"|"39.5985229"|"SRID=4326;POINT (19.9223865 39.5985229)"|""|""|"HOTEL"|"ACCOMMODATION"|"DIVANI HOTEL"|""|""|""|""|""|""|""|""|""|""|""|""|""|""|"1.0"
"http://slipo.eu/id/poi/b63c0974-3c00-3452-86db-43367a5fcdde"|"2051"|"GET"|"19.920196384175828"|"39.621943477569516"|"SRID=4326;MULTIPOLYGON (((19.9199264 39.6221224, 19.9201877 39.6223081, 19.9210863 39.6214693, 19.921148 39.6212813, 19.9211319 39.62118, 19.9210916 39.621149, 19.9199264 39.6221224)))"|""|""|"Sport"|"SPORT"|"KERKIRAIKOS GYMNASTIC CLUB; Κερκυραϊκός Γυμναστικός Σύλλογος"|""|"0"|""|""|""|""|""|""|""|""|""|""|""|"1.0"|"{scoreA: 1.0, scoreB: 1.0, score: 0.10526316}"
"http://slipo.eu/id/poi/13121e74-92e9-31f5-a188-6da2693dcb30"|"3498"|"GET"|"19.918002497906627"|"39.62116900986857"|"SRID=4326;MULTIPOINT ((19.918002497906627 39.62116900986857))"|""|""|"Health"|"HEALTH"|"Φαρμακείο; Pharmacy"|""|"2661023678"|""|""|""|"Μητροπολίτου Μεθοδίου"|"3"|"49100"|""|""|""|""|""|""|""
"http://slipo.eu/id/poi/a1a27a87-d573-3cd0-98f2-c65bc4a2917a"|"N1771624469"|"OpenStreetMap"|"19.9954146"|"39.4271882"|"SRID=4326;POINT (19.9954146 39.4271882)"|""|""|"VILLAGE"|"SETTLEMENTS"|"Μαραθιάς"|""|""|""|""|""|""|""|"49080"|""|""|""|""|""|""|"1.0"
"http://slipo.eu/id/poi/e503fdf4-bc62-32ee-9ca7-4550f8117dd1"|"N4302611268"|"OpenStreetMap"|"19.6476007"|"39.7603097"|"SRID=4326;POINT (19.6476007 39.7603097)"|""|""|"HOTEL"|"ACCOMMODATION"|"Corfu Boutique House"|""|""|""|""|""|""|""|""|""|""|""|""|""|""|"1.0"
"http://slipo.eu/id/poi/9517c5da-5bc5-35c7-91a3-75f25c8390bc"|"W110371787"|"OpenStreetMap"|"19.856805066807077"|"39.64731715105428"|"SRID=4326;MULTIPOLYGON (((19.8558418 39.6473786, 19.8567065 39.6465768, 19.8577683 39.6472557, 19.8569037 39.6480575, 19.8558418 39.6473786)))"|"468.21066570411614"|"13699.815497195425"|"STADIUM"|"SPORT"|"Γήπεδο Κρίκετ"|""|""|""|""|""|""|""|""|""|""|""|""|""|""|"1.0"
"http://slipo.eu/id/poi/0e063243-a2f6-36d7-9729-609289f38d74"|"N2849119421"|"OpenStreetMap"|"19.9772621"|"39.4353354"|"SRID=4326;POINT (19.9772621 39.4353354)"|""|""|"VILLAGE"|"SETTLEMENTS"|"Αργυράδες"|""|""|""|""|""|""|""|""|""|""|""|""|""|""|"1.0"
"http://slipo.eu/id/poi/1ec98b2c-2446-3221-a3d6-a9cac47736b2"|"W425387388"|"OpenStreetMap"|"19.95847249044943"|"39.424621899902654"|"SRID=4326;MULTIPOLYGON (((19.9583744 39.424626, 19.9584426 39.4246007, 19.9583954 39.4245248, 19.9584715 39.4244965, 19.9585826 39.424675, 19.9584383 39.4247286, 19.9583744 39.424626)))"|"71.54351836360247"|"242.13115956758443"|"INFORMATION"|"TOURISM"|"Akvila Travel Company"|""|""|""|""|""|""|""|""|""|""|""|""|""|""|"1.0"
"http://slipo.eu/id/poi/d8595bcb-3e76-320a-b2e3-edcff680e8b1"|"N2833389252"|"OpenStreetMap"|"19.8541401"|"39.5711996"|"SRID=4326;POINT (19.8541401 39.5711996)"|""|""|"UNKOWN"|"RELIGIOUS"|"Agia Paraskevi Church"|""|""|""|""|""|""|""|""|""|""|""|""|""|""|"1.0"
"http://slipo.eu/id/poi/a711f34d-b1d1-3b75-b814-d487effc302b"|"N4281790697"|"OpenStreetMap"|"19.9237213"|"39.621587"|"SRID=4326;POINT (19.9237213 39.621587)"|""|""|"CAFE"|"EAT/DRINK"|"Cafetierra"|""|"+302661025904"|""|"info@cafetierra.gr"|"http://cafetierra.gr"|"Καποδιστρίου"|"8"|"49100"|""|""|""|""|""|""|"1.0"
"http://slipo.eu/id/poi/fba99956-8590-38ef-a777-9d66cf5d8a47"|"N534401569"|"OpenStreetMap"|"19.883336"|"39.798173"|"SRID=4326;POINT (19.883336 39.798173)"|""|""|"BUSSTOP"|"TRANSPORT"|"Kalamaki"|""|""|""|""|""|""|""|""|""|""|""|""|""|""|"1.0"
"http://slipo.eu/id/poi/edc3de38-7795-311e-91fa-4237fdb94b34"|"N3140567700"|"OpenStreetMap"|"19.8856037"|"39.6346641"|"SRID=4326;POINT (19.8856037 39.6346641)"|""|""|"HOTEL"|"ACCOMMODATION"|"Louis Kerkyra Golf Hotel"|""|""|""|""|""|""|""|""|""|""|""|""|""|""|"1.0"
"http://slipo.eu/id/poi/f6fa9243-d6f6-378a-a5bf-2ee4e20ee63f"|"3529"|"GET"|"19.894199902542663"|"39.477831080528894"|"SRID=4326;MULTIPOINT ((19.894199902542663 39.477831080528894))"|""|""|"Gas Stations"|"AUTOMOTIVE"|"ΕΛΙΝ; ELIN"|""|"0"|""|""|"http://www.elin.gr"|""|""|""|""|""|""|""|""|""|""
"http://slipo.eu/id/poi/1f2ad4d0-3091-3cb0-9856-fd3d0ccf8cab"|"4126"|"GET"|"19.841054869188742"|"39.703388499983305"|"SRID=4326;MULTIPOINT ((19.841054869188742 39.703388499983305))"|""|""|"Super Market"|"SHOP"|"ΑΒ Βασιλόπουλος; AB Vasilopoulos"|""|"0"|""|""|""|"Υψος Κερκυρας"|""|"49083"|""|""|""|""|""|""|""
"http://slipo.eu/id/poi/7e8f33fb-6056-35b8-97f5-e91b0a1e6336"|"W190818841"|"OpenStreetMap"|"20.077151100000002"|"39.3833408"|"SRID=4326;MULTIPOLYGON (((20.0770795 39.3833854, 20.0772378 39.3833646, 20.0772227 39.3832962, 20.0770644 39.383317, 20.0770795 39.3833854)))"|"43.060861380224125"|"106.50704883383261"|"CHRISTIAN"|"RELIGIOUS"|"Ναός Ταξιαρχών"|""|""|""|""|""|""|""|""|""|""|""|""|""|""|"1.0"
"http://slipo.eu/id/poi/b22b2aa8-f079-384b-8714-67d33f73d26e"|"2442"|"GET"|"19.908727005089503"|"39.62572026289632"|"SRID=4326;MULTIPOINT ((19.908727005089503 39.62572026289632))"|""|""|"Culture – Entertainment"|"TOURISM"|"Εύθυμον; EFTHIMON"|""|"2661042230"|"0"|""|"http://euthymon.corfuland.gr"|"Εθνικής Αντιστάσεως"|"12"|"49100"|""|""|""|""|""|""|""
"http://slipo.eu/id/poi/e9b36ffb-50bf-3d46-a610-ed15ad5dfc2b"|"N2111969806"|"OpenStreetMap"|"20.0726357"|"39.4232378"|"SRID=4326;POINT (20.0726357 39.4232378)"|""|""|"DEPARTMENTSTORE"|"SHOP"|"Οπτικά Μάστορας Χρήστος"|""|"+30 26620 25252"|""|""|""|""|""|""|""|""|""|""|""|""|"1.0"
"http://slipo.eu/id/poi/04c33794-14ff-31ca-b712-11c448dfa9de"|"2387"|"GET"|"19.675437084898366"|"39.797023119051694"|"SRID=4326;MULTIPOINT ((19.675437084898366 39.797023119051694))"|""|""|"Tourism"|"TOURISM"|"DRASTI BEACH; Παραλία Δράστη"|""|"0"|""|""|""|""|""|""|""|""|""|""|""|""|""
"http://slipo.eu/id/poi/b434a210-b00f-35a2-a11f-b41103dec71b"|"N3678027964"|"OpenStreetMap"|"19.9321558"|"39.481927"|"SRID=4326;POINT (19.9321558 39.481927)"|""|""|"BAR"|"EAT/DRINK"|"Levande Beach Bar"|""|""|""|""|""|""|""|""|""|""|""|""|""|""|"1.0"
"http://slipo.eu/id/poi/4c1e915b-bdc9-31e6-b78f-682e4129dbb5"|"N1772947130"|"OpenStreetMap"|"19.8436491"|"39.6072816"|"SRID=4326;POINT (19.8436491 39.6072816)"|""|""|"HAMLET"|"SETTLEMENTS"|"Αγία Τριάδα"|""|""|""|""|""|""|""|"49100"|""|""|""|""|""|""|"1.0"
"http://slipo.eu/id/poi/82f9fb6f-d739-3079-90f3-364e6cce227e"|"N3097524399"|"OpenStreetMap"|"19.9207782"|"39.6232606"|"SRID=4326;POINT (19.9207782 39.6232606)"|""|""|"CAFE"|"EAT/DRINK"|"Earth cafe"|""|""|""|""|""|""|""|""|""|""|""|""|""|""|"1.0"
"http://slipo.eu/id/poi/5f91453a-c51d-382c-a8b1-dae5632ed902"|"W291983940"|"OpenStreetMap"|"19.84686294708065"|"39.55102440278967"|"SRID=4326;MULTIPOLYGON (((19.8467516 39.551044, 19.8467979 39.551, 19.8468141 39.551003, 19.8468712 39.5509483, 19.8469708 39.5510066, 19.8469013 39.5510684, 19.8468496 39.5510934, 19.8467516 39.551044)))"|"50.64709718230956"|"153.69394873321394"|"BAR"|"EAT/DRINK"|"Black Rocks"|""|""|""|""|""|""|""|""|""|""|""|""|""|""|"1.0"
"http://slipo.eu/id/poi/daeba0f6-a1f3-3c74-b522-a5d5c4697687"|"N4970808556"|"OpenStreetMap"|"19.8386768"|"39.6781687"|"SRID=4326;POINT (19.8386768 39.6781687)"|""|""|"RESTAURANT"|"EAT/DRINK"|"Castello"|""|""|""|""|""|""|""|""|""|""|""|""|""|""|"1.0"
"http://slipo.eu/id/poi/a25d3511-d45f-315f-8f47-06d03881f7d4"|"N4419494432"|"OpenStreetMap"|"19.6964444"|"39.7943426"|"SRID=4326;POINT (19.6964444 39.7943426)"|""|""|"SUPERMARKET"|"SHOP"|"Melitsa"|""|""|""|""|""|""|""|""|""|""|""|""|""|""|"1.0"
"http://slipo.eu/id/poi/97a3f978-6111-3ca1-85ef-875229b2bea2"|"1756"|"GET"|"19.914189501246085"|"39.54532370849707"|"SRID=4326;MULTIPOINT ((19.914189501246085 39.54532370849707))"|""|""|"Car"|"AUTOMOTIVE"|"Χώρος Στάθμευσης; PARKING"|""|"0"|""|""|""|""|""|""|""|""|""|""|""|""|""
"http://slipo.eu/id/poi/4c0c1ef9-2f6b-3716-a28e-39b50571b424"|"N488414696"|"OpenStreetMap"|"19.7468473"|"39.6737817"|"SRID=4326;POINT (19.7468473 39.6737817)"|""|""|"FUEL"|"AUTOMOTIVE"|"Shell"|""|""|""|""|""|""|""|""|""|""|""|""|""|""|"1.0"
"http://slipo.eu/id/poi/7ca3bae8-23bd-3d9b-ab3b-065613087647"|"N760265594"|"OpenStreetMap"|"19.8542571"|"39.5474416"|"SRID=4326;POINT (19.8542571 39.5474416)"|""|""|"BUSSTOP"|"TRANSPORT"|"Agios Gordios"|""|""|""|""|""|""|""|""|""|""|""|""|""|""|"1.0"
"http://slipo.eu/id/poi/2e74ab93-d7c3-3311-a2b8-acdff80b129a"|"2"|"GET"|"19.575956893321234"|"39.89663121109356"|"SRID=4326;MULTIPOINT ((19.575956893321234 39.89663121109356))"|""|""|"Natural Attractions"|"NATURAL ATTRACTION"|"Ερείκουσαι, 134μ.; ERIKOUSSE, 134m."|""|"0"|""|""|""|""|""|""|""|""|""|""|""|""|""
"http://slipo.eu/id/poi/5450a3ae-344b-3f89-bb59-be56740132e1"|"W190570769"|"OpenStreetMap"|"20.107195949520523"|"39.36426916722445"|"SRID=4326;MULTIPOLYGON (((20.1071572 39.3643736, 20.1072987 39.3643345, 20.1072718 39.3642759, 20.1073088 39.3642447, 20.1072768 39.3641965, 20.1072263 39.3642121, 20.1071673 39.3641665, 20.1070815 39.3642186, 20.107121 39.3642983, 20.1071572 39.3643736)))"|"70.20703325268404"|"275.6030244004671"|"RUINS"|"TOURISM"|"Μοναστήρι Παναγίας 1700"|""|""|""|""|""|""|""|""|""|""|""|""|""|""|"1.0"
"http://slipo.eu/id/poi/68d95fe6-101b-3ead-9b6c-1dc89f84377c"|"N761130036"|"OpenStreetMap"|"19.852682"|"39.5469742"|"SRID=4326;POINT (19.852682 39.5469742)"|""|""|"SUPERMARKET"|"SHOP"|"Bobolo"|""|""|""|""|""|""|""|""|""|""|""|""|""|""|"1.0"
"http://slipo.eu/id/poi/e8b7cac1-4e86-330e-9e43-cf853b89ede5"|"N761130062"|"OpenStreetMap"|"19.8504627"|"39.5455531"|"SRID=4326;POINT (19.8504627 39.5455531)"|""|""|"RESTAURANT"|"EAT/DRINK"|"Zefyros"|""|""|""|""|""|""|""|""|""|""|""|""|""|""|"1.0"
"http://slipo.eu/id/poi/6d37ecc8-2aac-376d-bc2c-ab609936b1c2"|"N1424565157"|"OpenStreetMap"|"19.9416494"|"39.4281133"|"SRID=4326;POINT (19.9416494 39.4281133)"|""|""|"RESTAURANT"|"EAT/DRINK"|"Akvila Travel Company"|""|""|""|""|""|""|""|""|""|""|"Mo-Su 10:00-22:00"|""|""|""|"1.0"
"http://slipo.eu/id/poi/212d4f81-9562-3539-8017-cde461d37e5d"|"2240"|"GET"|"19.70925433541135"|"39.782886044051594"|"SRID=4326;MULTIPOINT ((19.70925433541135 39.782886044051594))"|""|""|"Accommodation"|"ACCOMMODATION"|"Olimpic Palaca; OLIMPIC PALACA"|""|"0"|""|""|""|""|""|""|""|""|""|""|""|""|""
"http://slipo.eu/id/poi/cbe2a375-bed2-3b1b-bd79-d9f567b956e4"|"N3691877860"|"OpenStreetMap"|"19.9265613"|"39.4812353"|"SRID=4326;POINT (19.9265613 39.4812353)"|""|""|"HOTEL"|"ACCOMMODATION"|"Alexandros"|""|""|""|""|""|""|""|""|""|""|""|""|""|""|"1.0"
"http://slipo.eu/id/poi/19bcbd1b-a68a-3d0d-ae4b-19f32d0efd2b"|"W505145742"|"OpenStreetMap"|"19.987108639003797"|"39.414732670054185"|"SRID=4326;MULTIPOLYGON (((19.9871809 39.4148199, 19.986984 39.4147711, 19.9870364 39.4146454, 19.9872333 39.4146943, 19.9871809 39.4148199)))"|"64.90959842553058"|"260.86190703679387"|"RESTAURANT"|"EAT/DRINK"|"Taverna Dimitris"|""|""|""|""|""|""|""|""|""|""|""|""|""|""|"1.0"
"http://slipo.eu/id/poi/050b0140-f191-3c46-8b1e-fe20a134e35f"|"2306"|"GET"|"19.91975874611881"|"39.6193363437148"|"SRID=4326;MULTIPOINT ((19.91975874611881 39.6193363437148))"|""|""|"Public Security"|"PUBLIC SERVICE"|"NARCOTICS PROSECUTION DEPARTMENT; Τμήμα Δίωξης Ναρκωτικών"|""|"0"|""|""|"http://www.astynomia.gr"|"Λεωφόρος Αλεξάνδρας; LEOFOROS ALEXANDRAS"|"19"|"49100"|""|""|""|""|""|""|""
"http://slipo.eu/id/poi/87d29479-b2e9-3399-936d-c7361d7a0868"|"N1966515637"|"OpenStreetMap"|"19.8387921"|"39.6799588"|"SRID=4326;POINT (19.8387921 39.6799588)"|""|""|"HOTEL"|"ACCOMMODATION"|"Corfu Chandris"|""|""|""|""|""|""|""|""|""|""|""|""|""|""|"1.0"
"http://slipo.eu/id/poi/36951ffa-1869-3733-989e-b2da8198bd1a"|"N3179510717"|"OpenStreetMap"|"19.9040909"|"39.6212703"|"SRID=4326;POINT (19.9040909 39.6212703)"|""|""|"BANK"|"BUSINESS"|"Τράπεζα Πειραιώς"|""|""|""|""|""|""|""|""|""|""|""|""|""|""|"1.0"
"http://slipo.eu/id/poi/4f0e5a82-e2eb-38fb-ab24-871a19973fe6"|"N4357368103"|"OpenStreetMap"|"19.8839635"|"39.7236726"|"SRID=4326;POINT (19.8839635 39.7236726)"|""|""|"RESTAURANT"|"EAT/DRINK"|"Glyfa Tavern"|""|""|""|""|""|""|""|""|""|""|""|""|""|""|"1.0"
"http://slipo.eu/id/poi/8ffb7363-599c-3a68-9cc8-e65483a167a8"|"N4339504089"|"OpenStreetMap"|"19.912702"|"39.5469127"|"SRID=4326;POINT (19.912702 39.5469127)"|""|""|"RESTAURANT"|"EAT/DRINK"|"Mezza volta"|""|""|""|""|""|""|""|""|""|""|""|""|""|""|"1.0"
"http://slipo.eu/id/poi/714b5704-1a21-3788-966f-e6fa52b38541"|"W519033792"|"OpenStreetMap"|"19.83768174018223"|"39.80756088757734"|"SRID=4326;MULTIPOLYGON (((19.8376051 39.8074735, 19.8375589 39.8075636, 19.8375882 39.8075729, 19.8375828 39.8075837, 19.8376197 39.8075953, 19.8376147 39.8076041, 19.8376533 39.8076156, 19.8376479 39.8076254, 19.8377438 39.8076543, 19.8378042 39.8075324, 19.8376051 39.8074735)))"|"65.5096627037273"|"243.03993441553723"|"HOTEL"|"ACCOMMODATION"|"Villa Anna"|""|""|""|""|"http://villaannacorfu.com/"|""|""|""|""|""|""|""|""|""|"1.0"
"http://slipo.eu/id/poi/999219e5-1d24-34ce-adaa-7c8390974cf2"|"W443356748"|"OpenStreetMap"|"19.63805591571201"|"39.75114254118059"|"SRID=4326;MULTIPOLYGON (((19.6381881 39.7510994, 19.6379279 39.7511211, 19.6379266 39.7511871, 19.6381854 39.7511623, 19.6381881 39.7510994)))"|"59.08261749267385"|"158.62997335583952"|"BIERGARTEN"|"EAT/DRINK"|"Eriannas Snackbar"|""|""|""|""|""|""|""|""|""|""|""|""|""|""|"1.0"
"http://slipo.eu/id/poi/d25b4079-a8b7-3634-b097-7fc0614e56a2"|"2063"|"GET"|"19.837169177494573"|"39.614486785244836"|"SRID=4326;MULTIPOINT ((19.837169177494573 39.614486785244836))"|""|""|"Car"|"AUTOMOTIVE"|"Δημόσιο Κτέο Κερκύρας; Dimossio Kteo Kerkiras"|""|"2661052000"|"2661052000"|""|""|""|""|"49081"|""|""|""|""|""|""|""
"http://slipo.eu/id/poi/f78b12ee-2a3f-3f1a-824a-fcbc45294510"|"4082"|"GET"|"19.920808934166217"|"39.78920353934164"|"SRID=4326;MULTIPOINT ((19.920808934166217 39.78920353934164))"|""|""|"ATM"|"BUSINESS"|"Piraeus Bank - Touristiko Grafio Kassiopi Travel&quot;, Kassiopi; Τράπεζα Πειραιώς - Τουριστικό Γραφείο Κασσιόπη Travel&quot;, Κασσιόπη"|""|"0"|""|""|"http://www.piraeusbank.gr"|"Κεντρικός Πεζόδρομος"|""|"49081"|""|""|""|""|""|""|""
"http://slipo.eu/id/poi/e64e8d4b-77b8-3313-80c2-b934fa6371b1"|"N3524194793"|"OpenStreetMap"|"19.9489638"|"39.7800346"|"SRID=4326;POINT (19.9489638 39.7800346)"|""|""|"BEACH"|"NATURAL ATTRACTION"|"Arias Bay"|""|""|""|""|""|""|""|""|""|""|""|""|""|""|"1.0"
"http://slipo.eu/id/poi/df2822ef-6d64-370c-8339-bc036e5a39ba"|"N1987964579"|"OpenStreetMap"|"19.8461523"|"39.6481242"|"SRID=4326;POINT (19.8461523 39.6481242)"|""|""|"BUSSTOP"|"TRANSPORT"|"Spiti Prifti"|""|""|""|""|""|""|""|""|""|""|""|""|""|""|"1.0"
"http://slipo.eu/id/poi/e1623a91-c6c6-339b-aeed-fe00b58a49ea"|"1694"|"GET"|"19.882404636072543"|"39.72326982279037"|"SRID=4326;MULTIPOINT ((19.882404636072543 39.72326982279037))"|""|""|"Super Market"|"SHOP"|"SUPER MARKET; Super Market"|""|"0"|""|""|""|""|""|""|""|""|""|""|""|""|""
"http://slipo.eu/id/poi/4767a4d8-9231-3bac-b3ed-e82bbbbc85b0"|"3530"|"GET"|"19.892158093055144"|"39.481147816185896"|"SRID=4326;MULTIPOINT ((19.892158093055144 39.481147816185896))"|""|""|"Gas Stations"|"AUTOMOTIVE"|"JETOIL; JETOIL"|""|"0"|""|""|"http://www.jetoil.gr"|""|""|""|""|""|""|""|""|""|""
